[
  {
    "name": "Keflavik International Airport",
    "city": "Keflavik",
    "country": "Iceland",
    "iata_code": "KEF",
    "icao_code": "BIKF",
    "latitude": 63.985000610352,
    "longitude": -22.605600357056,
    "altitude": 171,
    "timezone_offset": 0.0,
    "timezone": "N",
    "type": "Atlantic/Reykjavik",
    "region": "airport"
  },
  {
    "name": "Edmonton International Airport",
    "city": "Edmonton",
    "country": "Canada",
    "iata_code": "YEG",
    "icao_code": "CYEG",
    "latitude": 53.309700012200004,
    "longitude": -113.580001831,
    "altitude": 2373,
    "timezone_offset": -7.0,
    "timezone": "A",
    "type": "America/Edmonton",
    "region": "airport"
  },
  {
    "name": "Halifax / Stanfield International Airport",
    "city": "Halifax",
    "country": "Canada",
    "iata_code": "YHZ",
    "icao_code": "CYHZ",
    "latitude": 44.8807983398,
    "longitude": -63.5085983276,
    "altitude": 477,
    "timezone_offset": -4.0,
    "timezone": "A",
    "type": "America/Halifax",
    "region": "airport"
  },
  {
    "name": "Kelowna International Airport",
    "city": "Kelowna",
    "country": "Canada",
    "iata_code": "YLW",
    "icao_code": "CYLW",
    "latitude": 49.9561004639,
    "longitude": -119.377998352,
    "altitude": 1421,
    "timezone_offset": -8.0,
    "timezone": "A",
    "type": "America/Vancouver",
    "region": "airport"
  },
  {
    "name": "Fort McMurray Airport",
    "city": "Fort Mcmurray",
    "country": "Canada",
    "iata_code": "YMM",
    "icao_code": "CYMM",
    "latitude": 56.653301239,
    "longitude": -111.222000122,
    "altitude": 1211,
    "timezone_offset": -7.0,
    "timezone": "A",
    "type": "America/Edmonton",
    "region": "airport"
  },
  {
    "name": "Ottawa Macdonald-Cartier International Airport",
    "city": "Ottawa",
    "country": "Canada",
    "iata_code": "YOW",
    "icao_code": "CYOW",
    "latitude": 45.3224983215332,
    "longitude": -75.66919708251953,
    "altitude": 374,
    "timezone_offset": -5.0,
    "timezone": "A",
    "type": "America/Toronto",
    "region": "airport"
  },
  {
    "name": "Quebec Jean Lesage International Airport",
    "city": "Quebec",
    "country": "Canada",
    "iata_code": "YQB",
    "icao_code": "CYQB",
    "latitude": 46.7911,
    "longitude": -71.393303,
    "altitude": 244,
    "timezone_offset": -5.0,
    "timezone": "A",
    "type": "America/Toronto",
    "region": "airport"
  },
  {
    "name": "Regina International Airport",
    "city": "Regina",
    "country": "Canada",
    "iata_code": "YQR",
    "icao_code": "CYQR",
    "latitude": 50.43190002441406,
    "longitude": -104.66600036621094,
    "altitude": 1894,
    "timezone_offset": -6.0,
    "timezone": "N",
    "type": "America/Regina",
    "region": "airport"
  },
  {
    "name": "Thunder Bay Airport",
    "city": "Thunder Bay",
    "country": "Canada",
    "iata_code": "YQT",
    "icao_code": "CYQT",
    "latitude": 48.37189865112305,
    "longitude": -89.32389831542969,
    "altitude": 653,
    "timezone_offset": -5.0,
    "timezone": "A",
    "type": "America/Toronto",
    "region": "airport"
  },
  {
    "name": "Billy Bishop Toronto City Centre Airport",
    "city": "Toronto",
    "country": "Canada",
    "iata_code": "YTZ",
    "icao_code": "CYTZ",
    "latitude": 43.627499,
    "longitude": -79.396202,
    "altitude": 252,
    "timezone_offset": -5.0,
    "timezone": "A",
    "type": "America/Toronto",
    "region": "airport"
  },
  {
    "name": "Montreal / Pierre Elliott Trudeau International Airport",
    "city": "Montreal",
    "country": "Canada",
    "iata_code": "YUL",
    "icao_code": "CYUL",
    "latitude": 45.4706001282,
    "longitude": -73.7407989502,
    "altitude": 118,
    "timezone_offset": -5.0,
    "timezone": "A",
    "type": "America/Toronto",
    "region": "airport"
  },
  {
    "name": "Vancouver International Airport",
    "city": "Vancouver",
    "country": "Canada",
    "iata_code": "YVR",
    "icao_code": "CYVR",
    "latitude": 49.193901062,
    "longitude": -123.183998108,
    "altitude": 14,
    "timezone_offset": -8.0,
    "timezone": "A",
    "type": "America/Vancouver",
    "region": "airport"
  },
  {
    "name": "Winnipeg / James Armstrong Richardson International Airport",
    "city": "Winnipeg",
    "country": "Canada",
    "iata_code": "YWG",
    "icao_code": "CYWG",
    "latitude": 49.909999847399995,
    "longitude": -97.2398986816,
    "altitude": 783,
    "timezone_offset": -6.0,
    "timezone": "A",
    "type": "America/Winnipeg",
    "region": "airport"
  },
  {
    "name": "Saskatoon John G. Diefenbaker International Airport",
    "city": "Saskatoon",
    "country": "Canada",
    "iata_code": "YXE",
    "icao_code": "CYXE",
    "latitude": 52.170799255371094,
    "longitude": -106.69999694824219,
    "altitude": 1653,
    "timezone_offset": -6.0,
    "timezone": "N",
    "type": "America/Regina",
    "region": "airport"
  },
  {
    "name": "Abbotsford Airport",
    "city": "Abbotsford",
    "country": "Canada",
    "iata_code": "YXX",
    "icao_code": "CYXX",
    "latitude": 49.025299072265625,
    "longitude": -122.36100006103516,
    "altitude": 195,
    "timezone_offset": -8.0,
    "timezone": "A",
    "type": "America/Vancouver",
    "region": "airport"
  },
  {
    "name": "Calgary International Airport",
    "city": "Calgary",
    "country": "Canada",
    "iata_code": "YYC",
    "icao_code": "CYYC",
    "latitude": 51.113899231,
    "longitude": -114.019996643,
    "altitude": 3557,
    "timezone_offset": -7.0,
    "timezone": "A",
    "type": "America/Edmonton",
    "region": "airport"
  },
  {
    "name": "Victoria International Airport",
    "city": "Victoria",
    "country": "Canada",
    "iata_code": "YYJ",
    "icao_code": "CYYJ",
    "latitude": 48.646900177,
    "longitude": -123.426002502,
    "altitude": 63,
    "timezone_offset": -8.0,
    "timezone": "A",
    "type": "America/Vancouver",
    "region": "airport"
  },
  {
    "name": "Lester B. Pearson International Airport",
    "city": "Toronto",
    "country": "Canada",
    "iata_code": "YYZ",
    "icao_code": "CYYZ",
    "latitude": 43.6772003174,
    "longitude": -79.63059997559999,
    "altitude": 569,
    "timezone_offset": -5.0,
    "timezone": "A",
    "type": "America/Toronto",
    "region": "airport"
  },
  {
    "name": "Houari Boumediene Airport",
    "city": "Algier",
    "country": "Algeria",
    "iata_code": "ALG",
    "icao_code": "DAAG",
    "latitude": 36.691001892089844,
    "longitude": 3.215409994125366,
    "altitude": 82,
    "timezone_offset": 1.0,
    "timezone": "N",
    "type": "Africa/Algiers",
    "region": "airport"
  },
  {
    "name": "Kotoka International Airport",
    "city": "Accra",
    "country": "Ghana",
    "iata_code": "ACC",
    "icao_code": "DGAA",
    "latitude": 5.605189800262451,
    "longitude": -0.16678600013256073,
    "altitude": 205,
    "timezone_offset": 0.0,
    "timezone": "N",
    "type": "Africa/Accra",
    "region": "airport"
  },
  {
    "name": "Murtala Muhammed International Airport",
    "city": "Lagos",
    "country": "Nigeria",
    "iata_code": "LOS",
    "icao_code": "DNMM",
    "latitude": 6.5773701667785645,
    "longitude": 3.321160078048706,
    "altitude": 135,
    "timezone_offset": 1.0,
    "timezone": "N",
    "type": "Africa/Lagos",
    "region": "airport"
  },
  {
    "name": "Tunis Carthage International Airport",
    "city": "Tunis",
    "country": "Tunisia",
    "iata_code": "TUN",
    "icao_code": "DTTA",
    "latitude": 36.85100173950195,
    "longitude": 10.22719955444336,
    "altitude": 22,
    "timezone_offset": 1.0,
    "timezone": "E",
    "type": "Africa/Tunis",
    "region": "airport"
  },
  {
    "name": "Brussels Airport",
    "city": "Brussels",
    "country": "Belgium",
    "iata_code": "BRU",
    "icao_code": "EBBR",
    "latitude": 50.901401519800004,
    "longitude": 4.48443984985,
    "altitude": 184,
    "timezone_offset": 1.0,
    "timezone": "E",
    "type": "Europe/Brussels",
    "region": "airport"
  },
  {
    "name": "Brussels South Charleroi Airport",
    "city": "Charleroi",
    "country": "Belgium",
    "iata_code": "CRL",
    "icao_code": "EBCI",
    "latitude": 50.459202,
    "longitude": 4.45382,
    "altitude": 614,
    "timezone_offset": 1.0,
    "timezone": "E",
    "type": "Europe/Brussels",
    "region": "airport"
  },
  {
    "name": "Liège Airport",
    "city": "Liege",
    "country": "Belgium",
    "iata_code": "LGG",
    "icao_code": "EBLG",
    "latitude": 50.63740158081055,
    "longitude": 5.443220138549805,
    "altitude": 659,
    "timezone_offset": 1.0,
    "timezone": "E",
    "type": "Europe/Brussels",
    "region": "airport"
  },
  {
    "name": "Berlin-Schönefeld Airport",
    "city": "Berlin",
    "country": "Germany",
    "iata_code": "SXF",
    "icao_code": "EDDB",
    "latitude": 52.380001,
    "longitude": 13.5225,
    "altitude": 157,
    "timezone_offset": 1.0,
    "timezone": "E",
    "type": "Europe/Berlin",
    "region": "airport"
  },
  {
    "name": "Frankfurt am Main Airport",
    "city": "Frankfurt",
    "country": "Germany",
    "iata_code": "FRA",
    "icao_code": "EDDF",
    "latitude": 50.033333,
    "longitude": 8.570556,
    "altitude": 364,
    "timezone_offset": 1.0,
    "timezone": "E",
    "type": "Europe/Berlin",
    "region": "airport"
  },
  {
    "name": "Cologne Bonn Airport",
    "city": "Cologne",
    "country": "Germany",
    "iata_code": "CGN",
    "icao_code": "EDDK",
    "latitude": 50.8658981323,
    "longitude": 7.1427397728,
    "altitude": 302,
    "timezone_offset": 1.0,
    "timezone": "E",
    "type": "Europe/Berlin",
    "region": "airport"
  },
  {
    "name": "Düsseldorf Airport",
    "city": "Duesseldorf",
    "country": "Germany",
    "iata_code": "DUS",
    "icao_code": "EDDL",
    "latitude": 51.289501,
    "longitude": 6.76678,
    "altitude": 147,
    "timezone_offset": 1.0,
    "timezone": "E",
    "type": "Europe/Berlin",
    "region": "airport"
  },
  {
    "name": "Munich Airport",
    "city": "Munich",
    "country": "Germany",
    "iata_code": "MUC",
    "icao_code": "EDDM",
    "latitude": 48.353802,
    "longitude": 11.7861,
    "altitude": 1487,
    "timezone_offset": 1.0,
    "timezone": "E",
    "type": "Europe/Berlin",
    "region": "airport"
  },
  {
    "name": "Stuttgart Airport",
    "city": "Stuttgart",
    "country": "Germany",
    "iata_code": "STR",
    "icao_code": "EDDS",
    "latitude": 48.689899444599995,
    "longitude": 9.22196006775,
    "altitude": 1276,
    "timezone_offset": 1.0,
    "timezone": "E",
    "type": "Europe/Berlin",
    "region": "airport"
  },
  {
    "name": "Berlin-Tegel Airport",
    "city": "Berlin",
    "country": "Germany",
    "iata_code": "TXL",
    "icao_code": "EDDT",
    "latitude": 52.5597,
    "longitude": 13.2877,
    "altitude": 122,
    "timezone_offset": 1.0,
    "timezone": "E",
    "type": "Europe/Berlin",
    "region": "airport"
  },
  {
    "name": "Lennart Meri Tallinn Airport",
    "city": "Tallinn-ulemiste International",
    "country": "Estonia",
    "iata_code": "TLL",
    "icao_code": "EETN",
    "latitude": 59.41329956049999,
    "longitude": 24.832799911499997,
    "altitude": 131,
    "timezone_offset": 2.0,
    "timezone": "E",
    "type": "Europe/Tallinn",
    "region": "airport"
  },
  {
    "name": "Helsinki Vantaa Airport",
    "city": "Helsinki",
    "country": "Finland",
    "iata_code": "HEL",
    "icao_code": "EFHK",
    "latitude": 60.317199707031,
    "longitude": 24.963300704956,
    "altitude": 179,
    "timezone_offset": 2.0,
    "timezone": "E",
    "type": "Europe/Helsinki",
    "region": "airport"
  },
  {
    "name": "Birmingham International Airport",
    "city": "Birmingham",
    "country": "United Kingdom",
    "iata_code": "BHX",
    "icao_code": "EGBB",
    "latitude": 52.453899383499994,
    "longitude": -1.74802994728,
    "altitude": 327,
    "timezone_offset": 0.0,
    "timezone": "E",
    "type": "Europe/London",
    "region": "airport"
  },
  {
    "name": "Manchester Airport",
    "city": "Manchester",
    "country": "United Kingdom",
    "iata_code": "MAN",
    "icao_code": "EGCC",
    "latitude": 53.35369873046875,
    "longitude": -2.2749500274658203,
    "altitude": 257,
    "timezone_offset": 0.0,
    "timezone": "E",
    "type": "Europe/London",
    "region": "airport"
  },
  {
    "name": "Bristol Airport",
    "city": "Bristol",
    "country": "United Kingdom",
    "iata_code": "BRS",
    "icao_code": "EGGD",
    "latitude": 51.382702,
    "longitude": -2.71909,
    "altitude": 622,
    "timezone_offset": 0.0,
    "timezone": "E",
    "type": "Europe/London",
    "region": "airport"
  },
  {
    "name": "London Luton Airport",
    "city": "London",
    "country": "United Kingdom",
    "iata_code": "LTN",
    "icao_code": "EGGW",
    "latitude": 51.874698638916016,
    "longitude": -0.36833301186561584,
    "altitude": 526,
    "timezone_offset": 0.0,
    "timezone": "E",
    "type": "Europe/London",
    "region": "airport"
  },
  {
    "name": "London Gatwick Airport",
    "city": "London",
    "country": "United Kingdom",
    "iata_code": "LGW",
    "icao_code": "EGKK",
    "latitude": 51.148102,
    "longitude": -0.190278,
    "altitude": 202,
    "timezone_offset": 0.0,
    "timezone": "E",
    "type": "Europe/London",
    "region": "airport"
  },
  {
    "name": "London Heathrow Airport",
    "city": "London",
    "country": "United Kingdom",
    "iata_code": "LHR",
    "icao_code": "EGLL",
    "latitude": 51.4706,
    "longitude": -0.461941,
    "altitude": 83,
    "timezone_offset": 0.0,
    "timezone": "E",
    "type": "Europe/London",
    "region": "airport"
  },
  {
    "name": "Newcastle Airport",
    "city": "Newcastle",
    "country": "United Kingdom",
    "iata_code": "NCL",
    "icao_code": "EGNT",
    "latitude": 55.037498474121094,
    "longitude": -1.6916699409484863,
    "altitude": 266,
    "timezone_offset": 0.0,
    "timezone": "E",
    "type": "Europe/London",
    "region": "airport"
  },
  {
    "name": "Edinburgh Airport",
    "city": "Edinburgh",
    "country": "United Kingdom",
    "iata_code": "EDI",
    "icao_code": "EGPH",
    "latitude": 55.95000076293945,
    "longitude": -3.372499942779541,
    "altitude": 135,
    "timezone_offset": 0.0,
    "timezone": "E",
    "type": "Europe/London",
    "region": "airport"
  },
  {
    "name": "London Stansted Airport",
    "city": "London",
    "country": "United Kingdom",
    "iata_code": "STN",
    "icao_code": "EGSS",
    "latitude": 51.8849983215,
    "longitude": 0.234999999404,
    "altitude": 348,
    "timezone_offset": 0.0,
    "timezone": "E",
    "type": "Europe/London",
    "region": "airport"
  },
  {
    "name": "Amsterdam Airport Schiphol",
    "city": "Amsterdam",
    "country": "Netherlands",
    "iata_code": "AMS",
    "icao_code": "EHAM",
    "latitude": 52.308601,
    "longitude": 4.76389,
    "altitude": -11,
    "timezone_offset": 1.0,
    "timezone": "E",
    "type": "Europe/Amsterdam",
    "region": "airport"
  },
  {
    "name": "Dublin Airport",
    "city": "Dublin",
    "country": "Ireland",
    "iata_code": "DUB",
    "icao_code": "EIDW",
    "latitude": 53.421299,
    "longitude": -6.27007,
    "altitude": 242,
    "timezone_offset": 0.0,
    "timezone": "E",
    "type": "Europe/Dublin",
    "region": "airport"
  },
  {
    "name": "Copenhagen Kastrup Airport",
    "city": "Copenhagen",
    "country": "Denmark",
    "iata_code": "CPH",
    "icao_code": "EKCH",
    "latitude": 55.617900848389,
    "longitude": 12.656000137329,
    "altitude": 17,
    "timezone_offset": 1.0,
    "timezone": "E",
    "type": "Europe/Copenhagen",
    "region": "airport"
  },
  {
    "name": "Luxembourg-Findel International Airport",
    "city": "Luxemburg",
    "country": "Luxembourg",
    "iata_code": "LUX",
    "icao_code": "ELLX",
    "latitude": 49.6233333,
    "longitude": 6.2044444,
    "altitude": 1234,
    "timezone_offset": 1.0,
    "timezone": "E",
    "type": "Europe/Luxembourg",
    "region": "airport"
  },
  {
    "name": "Oslo Lufthavn",
    "city": "Oslo",
    "country": "Norway",
    "iata_code": "OSL",
    "icao_code": "ENGM",
    "latitude": 60.121,
    "longitude": 11.0502,
    "altitude": 681,
    "timezone_offset": 1.0,
    "timezone": "E",
    "type": "Europe/Oslo",
    "region": "airport"
  },
  {
    "name": "Katowice International Airport",
    "city": "Katowice",
    "country": "Poland",
    "iata_code": "KTW",
    "icao_code": "EPKT",
    "latitude": 50.4743,
    "longitude": 19.08,
    "altitude": 995,
    "timezone_offset": 1.0,
    "timezone": "E",
    "type": "Europe/Warsaw",
    "region": "airport"
  },
  {
    "name": "Warsaw Chopin Airport",
    "city": "Warsaw",
    "country": "Poland",
    "iata_code": "WAW",
    "icao_code": "EPWA",
    "latitude": 52.1656990051,
    "longitude": 20.967100143399996,
    "altitude": 362,
    "timezone_offset": 1.0,
    "timezone": "E",
    "type": "Europe/Warsaw",
    "region": "airport"
  },
  {
    "name": "Stockholm-Arlanda Airport",
    "city": "Stockholm",
    "country": "Sweden",
    "iata_code": "ARN",
    "icao_code": "ESSA",
    "latitude": 59.651901245117,
    "longitude": 17.918600082397,
    "altitude": 137,
    "timezone_offset": 1.0,
    "timezone": "E",
    "type": "Europe/Stockholm",
    "region": "airport"
  },
  {
    "name": "Cape Town International Airport",
    "city": "Cape Town",
    "country": "South Africa",
    "iata_code": "CPT",
    "icao_code": "FACT",
    "latitude": -33.9648017883,
    "longitude": 18.6016998291,
    "altitude": 151,
    "timezone_offset": 2.0,
    "timezone": "U",
    "type": "Africa/Johannesburg",
    "region": "airport"
  },
  {
    "name": "OR Tambo International Airport",
    "city": "Johannesburg",
    "country": "South Africa",
    "iata_code": "JNB",
    "icao_code": "FAOR",
    "latitude": -26.1392,
    "longitude": 28.246,
    "altitude": 5558,
    "timezone_offset": 2.0,
    "timezone": "U",
    "type": "Africa/Johannesburg",
    "region": "airport"
  },
  {
    "name": "Sir Seewoosagur Ramgoolam International Airport",
    "city": "Plaisance",
    "country": "Mauritius",
    "iata_code": "MRU",
    "icao_code": "FIMP",
    "latitude": -20.430201,
    "longitude": 57.683601,
    "altitude": 186,
    "timezone_offset": 4.0,
    "timezone": "N",
    "type": "Indian/Mauritius",
    "region": "airport"
  },
  {
    "name": "Seychelles International Airport",
    "city": "Mahe",
    "country": "Seychelles",
    "iata_code": "SEZ",
    "icao_code": "FSIA",
    "latitude": -4.67434,
    "longitude": 55.521801,
    "altitude": 10,
    "timezone_offset": 4.0,
    "timezone": "U",
    "type": "Indian/Mahe",
    "region": "airport"
  },
  {
    "name": "Modibo Keita International Airport",
    "city": "Bamako",
    "country": "Mali",
    "iata_code": "BKO",
    "icao_code": "GABS",
    "latitude": 12.5335,
    "longitude": -7.94994,
    "altitude": 1247,
    "timezone_offset": 0.0,
    "timezone": "N",
    "type": "Africa/Bamako",
    "region": "airport"
  },
  {
    "name": "Gran Canaria Airport",
    "city": "Gran Canaria",
    "country": "Spain",
    "iata_code": "LPA",
    "icao_code": "GCLP",
    "latitude": 27.931900024414062,
    "longitude": -15.38659954071045,
    "altitude": 78,
    "timezone_offset": 0.0,
    "timezone": "E",
    "type": "Atlantic/Canary",
    "region": "airport"
  },
  {
    "name": "Tenerife South Airport",
    "city": "Tenerife",
    "country": "Spain",
    "iata_code": "TFS",
    "icao_code": "GCTS",
    "latitude": 28.044500351,
    "longitude": -16.5725002289,
    "altitude": 209,
    "timezone_offset": 0.0,
    "timezone": "E",
    "type": "Atlantic/Canary",
    "region": "airport"
  },
  {
    "name": "Mohammed V International Airport",
    "city": "Casablanca",
    "country": "Morocco",
    "iata_code": "CMN",
    "icao_code": "GMMN",
    "latitude": 33.36750030517578,
    "longitude": -7.589970111846924,
    "altitude": 656,
    "timezone_offset": 0.0,
    "timezone": "N",
    "type": "Africa/Casablanca",
    "region": "airport"
  },
  {
    "name": "Menara Airport",
    "city": "Marrakech",
    "country": "Morocco",
    "iata_code": "RAK",
    "icao_code": "GMMX",
    "latitude": 31.606899261499997,
    "longitude": -8.03629970551,
    "altitude": 1545,
    "timezone_offset": 0.0,
    "timezone": "N",
    "type": "Africa/Casablanca",
    "region": "airport"
  },
  {
    "name": "Léopold Sédar Senghor International Airport",
    "city": "Dakar",
    "country": "Senegal",
    "iata_code": "DKR",
    "icao_code": "GOOY",
    "latitude": 14.739700317382812,
    "longitude": -17.49020004272461,
    "altitude": 85,
    "timezone_offset": 0.0,
    "timezone": "N",
    "type": "Africa/Dakar",
    "region": "airport"
  },
  {
    "name": "Addis Ababa Bole International Airport",
    "city": "Addis Ababa",
    "country": "Ethiopia",
    "iata_code": "ADD",
    "icao_code": "HAAB",
    "latitude": 8.97789001465,
    "longitude": 38.799301147499996,
    "altitude": 7630,
    "timezone_offset": 3.0,
    "timezone": "U",
    "type": "Africa/Addis_Ababa",
    "region": "airport"
  },
  {
    "name": "Bujumbura International Airport",
    "city": "Bujumbura",
    "country": "Burundi",
    "iata_code": "BJM",
    "icao_code": "HBBA",
    "latitude": -3.3240199089050293,
    "longitude": 29.318500518798828,
    "altitude": 2582,
    "timezone_offset": 2.0,
    "timezone": "U",
    "type": "Africa/Bujumbura",
    "region": "airport"
  },
  {
    "name": "Cairo International Airport",
    "city": "Cairo",
    "country": "Egypt",
    "iata_code": "CAI",
    "icao_code": "HECA",
    "latitude": 30.12190055847168,
    "longitude": 31.40559959411621,
    "altitude": 382,
    "timezone_offset": 2.0,
    "timezone": "U",
    "type": "Africa/Cairo",
    "region": "airport"
  },
  {
    "name": "Tripoli International Airport",
    "city": "Tripoli",
    "country": "Libya",
    "iata_code": "TIP",
    "icao_code": "HLLT",
    "latitude": 32.6635017395,
    "longitude": 13.1590003967,
    "altitude": 263,
    "timezone_offset": 2.0,
    "timezone": "N",
    "type": "Africa/Tripoli",
    "region": "airport"
  },
  {
    "name": "Khartoum International Airport",
    "city": "Khartoum",
    "country": "Sudan",
    "iata_code": "KRT",
    "icao_code": "HSSS",
    "latitude": 15.589500427246094,
    "longitude": 32.553199768066406,
    "altitude": 1265,
    "timezone_offset": 3.0,
    "timezone": "U",
    "type": "Africa/Khartoum",
    "region": "airport"
  },
  {
    "name": "Julius Nyerere International Airport",
    "city": "Dar Es Salaam",
    "country": "Tanzania",
    "iata_code": "DAR",
    "icao_code": "HTDA",
    "latitude": -6.87811,
    "longitude": 39.202599,
    "altitude": 182,
    "timezone_offset": 3.0,
    "timezone": "U",
    "type": "Africa/Dar_es_Salaam",
    "region": "airport"
  },
  {
    "name": "Entebbe International Airport",
    "city": "Entebbe",
    "country": "Uganda",
    "iata_code": "EBB",
    "icao_code": "HUEN",
    "latitude": 0.042386,
    "longitude": 32.443501,
    "altitude": 3782,
    "timezone_offset": 3.0,
    "timezone": "U",
    "type": "Africa/Kampala",
    "region": "airport"
  },
  {
    "name": "Tirana International Airport Mother Teresa",
    "city": "Tirana",
    "country": "Albania",
    "iata_code": "TIA",
    "icao_code": "LATI",
    "latitude": 41.4146995544,
    "longitude": 19.7206001282,
    "altitude": 126,
    "timezone_offset": 1.0,
    "timezone": "E",
    "type": "Europe/Tirane",
    "region": "airport"
  },
  {
    "name": "Varna Airport",
    "city": "Varna",
    "country": "Bulgaria",
    "iata_code": "VAR",
    "icao_code": "LBWN",
    "latitude": 43.232101,
    "longitude": 27.8251,
    "altitude": 230,
    "timezone_offset": 2.0,
    "timezone": "E",
    "type": "Europe/Sofia",
    "region": "airport"
  },
  {
    "name": "Paphos International Airport",
    "city": "Paphos",
    "country": "Cyprus",
    "iata_code": "PFO",
    "icao_code": "LCPH",
    "latitude": 34.71799850463867,
    "longitude": 32.48569869995117,
    "altitude": 41,
    "timezone_offset": 2.0,
    "timezone": "E",
    "type": "Asia/Nicosia",
    "region": "airport"
  },
  {
    "name": "Dubrovnik Airport",
    "city": "Dubrovnik",
    "country": "Croatia",
    "iata_code": "DBV",
    "icao_code": "LDDU",
    "latitude": 42.5614013671875,
    "longitude": 18.268199920654297,
    "altitude": 527,
    "timezone_offset": 1.0,
    "timezone": "E",
    "type": "Europe/Zagreb",
    "region": "airport"
  },
  {
    "name": "Zagreb Airport",
    "city": "Zagreb",
    "country": "Croatia",
    "iata_code": "ZAG",
    "icao_code": "LDZA",
    "latitude": 45.7429008484,
    "longitude": 16.0687999725,
    "altitude": 353,
    "timezone_offset": 1.0,
    "timezone": "E",
    "type": "Europe/Zagreb",
    "region": "airport"
  },
  {
    "name": "Zadar Airport",
    "city": "Zadar",
    "country": "Croatia",
    "iata_code": "ZAD",
    "icao_code": "LDZD",
    "latitude": 44.108299,
    "longitude": 15.3467,
    "altitude": 289,
    "timezone_offset": 1.0,
    "timezone": "E",
    "type": "Europe/Zagreb",
    "region": "airport"
  },
  {
    "name": "Alicante International Airport",
    "city": "Alicante",
    "country": "Spain",
    "iata_code": "ALC",
    "icao_code": "LEAL",
    "latitude": 38.28219985961914,
    "longitude": -0.5581560134887695,
    "altitude": 142,
    "timezone_offset": 1.0,
    "timezone": "E",
    "type": "Europe/Madrid",
    "region": "airport"
  },
  {
    "name": "Barcelona International Airport",
    "city": "Barcelona",
    "country": "Spain",
    "iata_code": "BCN",
    "icao_code": "LEBL",
    "latitude": 41.2971,
    "longitude": 2.07846,
    "altitude": 12,
    "timezone_offset": 1.0,
    "timezone": "E",
    "type": "Europe/Madrid",
    "region": "airport"
  },
  {
    "name": "Ibiza Airport",
    "city": "Ibiza",
    "country": "Spain",
    "iata_code": "IBZ",
    "icao_code": "LEIB",
    "latitude": 38.872898101800004,
    "longitude": 1.3731199502899998,
    "altitude": 24,
    "timezone_offset": 1.0,
    "timezone": "E",
    "type": "Europe/Madrid",
    "region": "airport"
  },
  {
    "name": "Adolfo Suárez Madrid–Barajas Airport",
    "city": "Madrid",
    "country": "Spain",
    "iata_code": "MAD",
    "icao_code": "LEMD",
    "latitude": 40.471926,
    "longitude": -3.56264,
    "altitude": 1998,
    "timezone_offset": 1.0,
    "timezone": "E",
    "type": "Europe/Madrid",
    "region": "airport"
  },
  {
    "name": "Menorca Airport",
    "city": "Menorca",
    "country": "Spain",
    "iata_code": "MAH",
    "icao_code": "LEMH",
    "latitude": 39.86259841918945,
    "longitude": 4.218649864196777,
    "altitude": 302,
    "timezone_offset": 1.0,
    "timezone": "E",
    "type": "Europe/Madrid",
    "region": "airport"
  },
  {
    "name": "Valencia Airport",
    "city": "Valencia",
    "country": "Spain",
    "iata_code": "VLC",
    "icao_code": "LEVC",
    "latitude": 39.4893,
    "longitude": -0.481625,
    "altitude": 240,
    "timezone_offset": 1.0,
    "timezone": "E",
    "type": "Europe/Madrid",
    "region": "airport"
  },
  {
    "name": "Lyon Saint-Exupéry Airport",
    "city": "Lyon",
    "country": "France",
    "iata_code": "LYS",
    "icao_code": "LFLL",
    "latitude": 45.725556,
    "longitude": 5.081111,
    "altitude": 821,
    "timezone_offset": 1.0,
    "timezone": "E",
    "type": "Europe/Paris",
    "region": "airport"
  },
  {
    "name": "Marseille Provence Airport",
    "city": "Marseille",
    "country": "France",
    "iata_code": "MRS",
    "icao_code": "LFML",
    "latitude": 43.439271922,
    "longitude": 5.22142410278,
    "altitude": 74,
    "timezone_offset": 1.0,
    "timezone": "E",
    "type": "Europe/Paris",
    "region": "airport"
  },
  {
    "name": "Nice-Côte d'Azur Airport",
    "city": "Nice",
    "country": "France",
    "iata_code": "NCE",
    "icao_code": "LFMN",
    "latitude": 43.6584014893,
    "longitude": 7.215869903560001,
    "altitude": 12,
    "timezone_offset": 1.0,
    "timezone": "E",
    "type": "Europe/Paris",
    "region": "airport"
  },
  {
    "name": "Charles de Gaulle International Airport",
    "city": "Paris",
    "country": "France",
    "iata_code": "CDG",
    "icao_code": "LFPG",
    "latitude": 49.012798,
    "longitude": 2.55,
    "altitude": 392,
    "timezone_offset": 1.0,
    "timezone": "E",
    "type": "Europe/Paris",
    "region": "airport"
  },
  {
    "name": "Paris-Orly Airport",
    "city": "Paris",
    "country": "France",
    "iata_code": "ORY",
    "icao_code": "LFPO",
    "latitude": 48.7233333,
    "longitude": 2.3794444,
    "altitude": 291,
    "timezone_offset": 1.0,
    "timezone": "E",
    "type": "Europe/Paris",
    "region": "airport"
  },
  {
    "name": "Heraklion International Nikos Kazantzakis Airport",
    "city": "Heraklion",
    "country": "Greece",
    "iata_code": "HER",
    "icao_code": "LGIR",
    "latitude": 35.3396987915,
    "longitude": 25.180299758900002,
    "altitude": 115,
    "timezone_offset": 2.0,
    "timezone": "E",
    "type": "Europe/Athens",
    "region": "airport"
  },
  {
    "name": "Diagoras Airport",
    "city": "Rhodos",
    "country": "Greece",
    "iata_code": "RHO",
    "icao_code": "LGRP",
    "latitude": 36.405399322509766,
    "longitude": 28.086200714111328,
    "altitude": 17,
    "timezone_offset": 2.0,
    "timezone": "E",
    "type": "Europe/Athens",
    "region": "airport"
  },
  {
    "name": "Thessaloniki Macedonia International Airport",
    "city": "Thessaloniki",
    "country": "Greece",
    "iata_code": "SKG",
    "icao_code": "LGTS",
    "latitude": 40.51969909667969,
    "longitude": 22.97089958190918,
    "altitude": 22,
    "timezone_offset": 2.0,
    "timezone": "E",
    "type": "Europe/Athens",
    "region": "airport"
  },
  {
    "name": "Budapest Liszt Ferenc International Airport",
    "city": "Budapest",
    "country": "Hungary",
    "iata_code": "BUD",
    "icao_code": "LHBP",
    "latitude": 47.42976,
    "longitude": 19.261093,
    "altitude": 495,
    "timezone_offset": 1.0,
    "timezone": "E",
    "type": "Europe/Budapest",
    "region": "airport"
  },
  {
    "name": "Catania-Fontanarossa Airport",
    "city": "Catania",
    "country": "Italy",
    "iata_code": "CTA",
    "icao_code": "LICC",
    "latitude": 37.466801,
    "longitude": 15.0664,
    "altitude": 39,
    "timezone_offset": 1.0,
    "timezone": "E",
    "type": "Europe/Rome",
    "region": "airport"
  },
  {
    "name": "Malpensa International Airport",
    "city": "Milano",
    "country": "Italy",
    "iata_code": "MXP",
    "icao_code": "LIMC",
    "latitude": 45.6306,
    "longitude": 8.72811,
    "altitude": 768,
    "timezone_offset": 1.0,
    "timezone": "E",
    "type": "Europe/Rome",
    "region": "airport"
  },
  {
    "name": "Il Caravaggio International Airport",
    "city": "Bergamo",
    "country": "Italy",
    "iata_code": "BGY",
    "icao_code": "LIME",
    "latitude": 45.673901,
    "longitude": 9.70417,
    "altitude": 782,
    "timezone_offset": 1.0,
    "timezone": "E",
    "type": "Europe/Rome",
    "region": "airport"
  },
  {
    "name": "Venice Marco Polo Airport",
    "city": "Venice",
    "country": "Italy",
    "iata_code": "VCE",
    "icao_code": "LIPZ",
    "latitude": 45.505299,
    "longitude": 12.3519,
    "altitude": 7,
    "timezone_offset": 1.0,
    "timezone": "E",
    "type": "Europe/Rome",
    "region": "airport"
  },
  {
    "name": "Leonardo da Vinci–Fiumicino Airport",
    "city": "Rome",
    "country": "Italy",
    "iata_code": "FCO",
    "icao_code": "LIRF",
    "latitude": 41.8002778,
    "longitude": 12.2388889,
    "altitude": 13,
    "timezone_offset": 1.0,
    "timezone": "E",
    "type": "Europe/Rome",
    "region": "airport"
  },
  {
    "name": "Naples International Airport",
    "city": "Naples",
    "country": "Italy",
    "iata_code": "NAP",
    "icao_code": "LIRN",
    "latitude": 40.886002,
    "longitude": 14.2908,
    "altitude": 294,
    "timezone_offset": 1.0,
    "timezone": "E",
    "type": "Europe/Rome",
    "region": "airport"
  },
  {
    "name": "Pisa International Airport",
    "city": "Pisa",
    "country": "Italy",
    "iata_code": "PSA",
    "icao_code": "LIRP",
    "latitude": 43.683899,
    "longitude": 10.3927,
    "altitude": 6,
    "timezone_offset": 1.0,
    "timezone": "E",
    "type": "Europe/Rome",
    "region": "airport"
  },
  {
    "name": "Václav Havel Airport Prague",
    "city": "Prague",
    "country": "Czech Republic",
    "iata_code": "PRG",
    "icao_code": "LKPR",
    "latitude": 50.1008,
    "longitude": 14.26,
    "altitude": 1247,
    "timezone_offset": 1.0,
    "timezone": "E",
    "type": "Europe/Prague",
    "region": "airport"
  },
  {
    "name": "Vienna International Airport",
    "city": "Vienna",
    "country": "Austria",
    "iata_code": "VIE",
    "icao_code": "LOWW",
    "latitude": 48.110298156738,
    "longitude": 16.569700241089,
    "altitude": 600,
    "timezone_offset": 1.0,
    "timezone": "E",
    "type": "Europe/Vienna",
    "region": "airport"
  },
  {
    "name": "Francisco de Sá Carneiro Airport",
    "city": "Porto",
    "country": "Portugal",
    "iata_code": "OPO",
    "icao_code": "LPPR",
    "latitude": 41.2481002808,
    "longitude": -8.68138980865,
    "altitude": 228,
    "timezone_offset": 0.0,
    "timezone": "E",
    "type": "Europe/Lisbon",
    "region": "airport"
  },
  {
    "name": "Humberto Delgado Airport (Lisbon Portela Airport)",
    "city": "Lisbon",
    "country": "Portugal",
    "iata_code": "LIS",
    "icao_code": "LPPT",
    "latitude": 38.7813,
    "longitude": -9.13592,
    "altitude": 374,
    "timezone_offset": 0.0,
    "timezone": "E",
    "type": "Europe/Lisbon",
    "region": "airport"
  },
  {
    "name": "Henri Coandă International Airport",
    "city": "Bucharest",
    "country": "Romania",
    "iata_code": "OTP",
    "icao_code": "LROP",
    "latitude": 44.5711111,
    "longitude": 26.085,
    "altitude": 314,
    "timezone_offset": 2.0,
    "timezone": "E",
    "type": "Europe/Bucharest",
    "region": "airport"
  },
  {
    "name": "Geneva Cointrin International Airport",
    "city": "Geneva",
    "country": "Switzerland",
    "iata_code": "GVA",
    "icao_code": "LSGG",
    "latitude": 46.23809814453125,
    "longitude": 6.108950138092041,
    "altitude": 1411,
    "timezone_offset": 1.0,
    "timezone": "E",
    "type": "Europe/Paris",
    "region": "airport"
  },
  {
    "name": "Zürich Airport",
    "city": "Zurich",
    "country": "Switzerland",
    "iata_code": "ZRH",
    "icao_code": "LSZH",
    "latitude": 47.464699,
    "longitude": 8.54917,
    "altitude": 1416,
    "timezone_offset": 1.0,
    "timezone": "E",
    "type": "Europe/Zurich",
    "region": "airport"
  },
  {
    "name": "Esenboğa International Airport",
    "city": "Ankara",
    "country": "Turkey",
    "iata_code": "ESB",
    "icao_code": "LTAC",
    "latitude": 40.128101348899996,
    "longitude": 32.995098114,
    "altitude": 3125,
    "timezone_offset": 3.0,
    "timezone": "E",
    "type": "Europe/Istanbul",
    "region": "airport"
  },
  {
    "name": "Dalaman International Airport",
    "city": "Dalaman",
    "country": "Turkey",
    "iata_code": "DLM",
    "icao_code": "LTBS",
    "latitude": 36.7131004333,
    "longitude": 28.7924995422,
    "altitude": 20,
    "timezone_offset": 3.0,
    "timezone": "E",
    "type": "Europe/Istanbul",
    "region": "airport"
  },
  {
    "name": "Las Américas International Airport",
    "city": "Santo Domingo",
    "country": "Dominican Republic",
    "iata_code": "SDQ",
    "icao_code": "MDSD",
    "latitude": 18.42970085144,
    "longitude": -69.668899536133,
    "altitude": 59,
    "timezone_offset": -4.0,
    "timezone": "U",
    "type": "America/Santo_Domingo",
    "region": "airport"
  },
  {
    "name": "La Aurora Airport",
    "city": "Guatemala City",
    "country": "Guatemala",
    "iata_code": "GUA",
    "icao_code": "MGGT",
    "latitude": 14.5833,
    "longitude": -90.527496,
    "altitude": 4952,
    "timezone_offset": -6.0,
    "timezone": "U",
    "type": "America/Guatemala",
    "region": "airport"
  },
  {
    "name": "Don Miguel Hidalgo Y Costilla International Airport",
    "city": "Guadalajara",
    "country": "Mexico",
    "iata_code": "GDL",
    "icao_code": "MMGL",
    "latitude": 20.521799087524414,
    "longitude": -103.31099700927734,
    "altitude": 5016,
    "timezone_offset": -6.0,
    "timezone": "S",
    "type": "America/Mexico_City",
    "region": "airport"
  },
  {
    "name": "Licenciado Benito Juarez International Airport",
    "city": "Mexico City",
    "country": "Mexico",
    "iata_code": "MEX",
    "icao_code": "MMMX",
    "latitude": 19.4363,
    "longitude": -99.072098,
    "altitude": 7316,
    "timezone_offset": -6.0,
    "timezone": "S",
    "type": "America/Mexico_City",
    "region": "airport"
  },
  {
    "name": "Cancún International Airport",
    "city": "Cancun",
    "country": "Mexico",
    "iata_code": "CUN",
    "icao_code": "MMUN",
    "latitude": 21.036500930800003,
    "longitude": -86.8770980835,
    "altitude": 22,
    "timezone_offset": -5.0,
    "timezone": "S",
    "type": "America/Cancun",
    "region": "airport"
  },
  {
    "name": "Tocumen International Airport",
    "city": "Panama City",
    "country": "Panama",
    "iata_code": "PTY",
    "icao_code": "MPTO",
    "latitude": 9.0713596344,
    "longitude": -79.3834991455,
    "altitude": 135,
    "timezone_offset": -5.0,
    "timezone": "U",
    "type": "America/Panama",
    "region": "airport"
  },
  {
    "name": "Juan Santamaria International Airport",
    "city": "San Jose",
    "country": "Costa Rica",
    "iata_code": "SJO",
    "icao_code": "MROC",
    "latitude": 9.993860244750977,
    "longitude": -84.20880126953125,
    "altitude": 3021,
    "timezone_offset": -6.0,
    "timezone": "U",
    "type": "America/Costa_Rica",
    "region": "airport"
  },
  {
    "name": "José Martí International Airport",
    "city": "Havana",
    "country": "Cuba",
    "iata_code": "HAV",
    "icao_code": "MUHA",
    "latitude": 22.989200592041016,
    "longitude": -82.40910339355469,
    "altitude": 210,
    "timezone_offset": -5.0,
    "timezone": "U",
    "type": "America/Havana",
    "region": "airport"
  },
  {
    "name": "Nadi International Airport",
    "city": "Nandi",
    "country": "Fiji",
    "iata_code": "NAN",
    "icao_code": "NFFN",
    "latitude": -17.755399703979492,
    "longitude": 177.4429931640625,
    "altitude": 59,
    "timezone_offset": 12.0,
    "timezone": "U",
    "type": "Pacific/Fiji",
    "region": "airport"
  },
  {
    "name": "Pago Pago International Airport",
    "city": "Pago Pago",
    "country": "American Samoa",
    "iata_code": "PPG",
    "icao_code": "NSTU",
    "latitude": -14.3310003281,
    "longitude": -170.710006714,
    "altitude": 32,
    "timezone_offset": -11.0,
    "timezone": "U",
    "type": "Pacific/Pago_Pago",
    "region": "airport"
  },
  {
    "name": "Auckland International Airport",
    "city": "Auckland",
    "country": "New Zealand",
    "iata_code": "AKL",
    "icao_code": "NZAA",
    "latitude": -37.008098602299995,
    "longitude": 174.792007446,
    "altitude": 23,
    "timezone_offset": 12.0,
    "timezone": "Z",
    "type": "Pacific/Auckland",
    "region": "airport"
  },
  {
    "name": "Christchurch International Airport",
    "city": "Christchurch",
    "country": "New Zealand",
    "iata_code": "CHC",
    "icao_code": "NZCH",
    "latitude": -43.48939895629883,
    "longitude": 172.53199768066406,
    "altitude": 123,
    "timezone_offset": 12.0,
    "timezone": "Z",
    "type": "Pacific/Auckland",
    "region": "airport"
  },
  {
    "name": "Bahrain International Airport",
    "city": "Bahrain",
    "country": "Bahrain",
    "iata_code": "BAH",
    "icao_code": "OBBI",
    "latitude": 26.27079963684082,
    "longitude": 50.63359832763672,
    "altitude": 6,
    "timezone_offset": 3.0,
    "timezone": "U",
    "type": "Asia/Bahrain",
    "region": "airport"
  },
  {
    "name": "King Abdulaziz International Airport",
    "city": "Jeddah",
    "country": "Saudi Arabia",
    "iata_code": "JED",
    "icao_code": "OEJN",
    "latitude": 21.6796,
    "longitude": 39.156502,
    "altitude": 48,
    "timezone_offset": 3.0,
    "timezone": "U",
    "type": "Asia/Riyadh",
    "region": "airport"
  },
  {
    "name": "Queen Alia International Airport",
    "city": "Amman",
    "country": "Jordan",
    "iata_code": "AMM",
    "icao_code": "OJAI",
    "latitude": 31.7226009369,
    "longitude": 35.9931983948,
    "altitude": 2395,
    "timezone_offset": 2.0,
    "timezone": "E",
    "type": "Asia/Amman",
    "region": "airport"
  },
  {
    "name": "Kuwait International Airport",
    "city": "Kuwait",
    "country": "Kuwait",
    "iata_code": "KWI",
    "icao_code": "OKBK",
    "latitude": 29.226600646972656,
    "longitude": 47.96889877319336,
    "altitude": 206,
    "timezone_offset": 3.0,
    "timezone": "U",
    "type": "Asia/Kuwait",
    "region": "airport"
  },
  {
    "name": "Beirut Rafic Hariri International Airport",
    "city": "Beirut",
    "country": "Lebanon",
    "iata_code": "BEY",
    "icao_code": "OLBA",
    "latitude": 33.820899963378906,
    "longitude": 35.488399505615234,
    "altitude": 87,
    "timezone_offset": 2.0,
    "timezone": "E",
    "type": "Asia/Beirut",
    "region": "airport"
  },
  {
    "name": "Abu Dhabi International Airport",
    "city": "Abu Dhabi",
    "country": "United Arab Emirates",
    "iata_code": "AUH",
    "icao_code": "OMAA",
    "latitude": 24.433000564575195,
    "longitude": 54.651100158691406,
    "altitude": 88,
    "timezone_offset": 4.0,
    "timezone": "U",
    "type": "Asia/Dubai",
    "region": "airport"
  },
  {
    "name": "Dubai International Airport",
    "city": "Dubai",
    "country": "United Arab Emirates",
    "iata_code": "DXB",
    "icao_code": "OMDB",
    "latitude": 25.2527999878,
    "longitude": 55.3643989563,
    "altitude": 62,
    "timezone_offset": 4.0,
    "timezone": "U",
    "type": "Asia/Dubai",
    "region": "airport"
  },
  {
    "name": "Jinnah International Airport",
    "city": "Karachi",
    "country": "Pakistan",
    "iata_code": "KHI",
    "icao_code": "OPKC",
    "latitude": 24.9065,
    "longitude": 67.160797,
    "altitude": 100,
    "timezone_offset": 5.0,
    "timezone": "N",
    "type": "Asia/Karachi",
    "region": "airport"
  },
  {
    "name": "Alama Iqbal International Airport",
    "city": "Lahore",
    "country": "Pakistan",
    "iata_code": "LHE",
    "icao_code": "OPLA",
    "latitude": 31.5216007232666,
    "longitude": 74.40360260009766,
    "altitude": 712,
    "timezone_offset": 5.0,
    "timezone": "N",
    "type": "Asia/Karachi",
    "region": "airport"
  },
  {
    "name": "Antonio B. Won Pat International Airport",
    "city": "Agana",
    "country": "Guam",
    "iata_code": "GUM",
    "icao_code": "PGUM",
    "latitude": 13.4834003448,
    "longitude": 144.796005249,
    "altitude": 298,
    "timezone_offset": 10.0,
    "timezone": "U",
    "type": "Pacific/Guam",
    "region": "airport"
  },
  {
    "name": "Taiwan Taoyuan International Airport",
    "city": "Taipei",
    "country": "Taiwan",
    "iata_code": "TPE",
    "icao_code": "RCTP",
    "latitude": 25.0777,
    "longitude": 121.233002,
    "altitude": 106,
    "timezone_offset": 8.0,
    "timezone": "U",
    "type": "Asia/Taipei",
    "region": "airport"
  },
  {
    "name": "Narita International Airport",
    "city": "Tokyo",
    "country": "Japan",
    "iata_code": "NRT",
    "icao_code": "RJAA",
    "latitude": 35.7647018433,
    "longitude": 140.386001587,
    "altitude": 141,
    "timezone_offset": 9.0,
    "timezone": "U",
    "type": "Asia/Tokyo",
    "region": "airport"
  },
  {
    "name": "New Chitose Airport",
    "city": "Sapporo",
    "country": "Japan",
    "iata_code": "CTS",
    "icao_code": "RJCC",
    "latitude": 42.77519989013672,
    "longitude": 141.69200134277344,
    "altitude": 82,
    "timezone_offset": 9.0,
    "timezone": "U",
    "type": "Asia/Tokyo",
    "region": "airport"
  },
  {
    "name": "Fukuoka Airport",
    "city": "Fukuoka",
    "country": "Japan",
    "iata_code": "FUK",
    "icao_code": "RJFF",
    "latitude": 33.585899353027344,
    "longitude": 130.4510040283203,
    "altitude": 32,
    "timezone_offset": 9.0,
    "timezone": "U",
    "type": "Asia/Tokyo",
    "region": "airport"
  },
  {
    "name": "Tokyo Haneda International Airport",
    "city": "Tokyo",
    "country": "Japan",
    "iata_code": "HND",
    "icao_code": "RJTT",
    "latitude": 35.552299,
    "longitude": 139.779999,
    "altitude": 35,
    "timezone_offset": 9.0,
    "timezone": "U",
    "type": "Asia/Tokyo",
    "region": "airport"
  },
  {
    "name": "Ninoy Aquino International Airport",
    "city": "Manila",
    "country": "Philippines",
    "iata_code": "MNL",
    "icao_code": "RPLL",
    "latitude": 14.5086,
    "longitude": 121.019997,
    "altitude": 75,
    "timezone_offset": 8.0,
    "timezone": "N",
    "type": "Asia/Manila",
    "region": "airport"
  },
  {
    "name": "Presidente Juscelino Kubistschek International Airport",
    "city": "Brasilia",
    "country": "Brazil",
    "iata_code": "BSB",
    "icao_code": "SBBR",
    "latitude": -15.86916732788086,
    "longitude": -47.920833587646484,
    "altitude": 3497,
    "timezone_offset": -3.0,
    "timezone": "S",
    "type": "America/Sao_Paulo",
    "region": "airport"
  },
  {
    "name": "Rio Galeão – Tom Jobim International Airport",
    "city": "Rio De Janeiro",
    "country": "Brazil",
    "iata_code": "GIG",
    "icao_code": "SBGL",
    "latitude": -22.8099994659,
    "longitude": -43.2505569458,
    "altitude": 28,
    "timezone_offset": -3.0,
    "timezone": "S",
    "type": "America/Sao_Paulo",
    "region": "airport"
  },
  {
    "name": "Guarulhos - Governador André Franco Montoro International Airport",
    "city": "Sao Paulo",
    "country": "Brazil",
    "iata_code": "GRU",
    "icao_code": "SBGR",
    "latitude": -23.435556411743164,
    "longitude": -46.47305679321289,
    "altitude": 2459,
    "timezone_offset": -3.0,
    "timezone": "S",
    "type": "America/Sao_Paulo",
    "region": "airport"
  },
  {
    "name": "Comodoro Arturo Merino Benítez International Airport",
    "city": "Santiago",
    "country": "Chile",
    "iata_code": "SCL",
    "icao_code": "SCEL",
    "latitude": -33.393001556396484,
    "longitude": -70.78579711914062,
    "altitude": 1555,
    "timezone_offset": -4.0,
    "timezone": "S",
    "type": "America/Santiago",
    "region": "airport"
  },
  {
    "name": "El Dorado International Airport",
    "city": "Bogota",
    "country": "Colombia",
    "iata_code": "BOG",
    "icao_code": "SKBO",
    "latitude": 4.70159,
    "longitude": -74.1469,
    "altitude": 8361,
    "timezone_offset": -5.0,
    "timezone": "U",
    "type": "America/Bogota",
    "region": "airport"
  },
  {
    "name": "Jorge Chávez International Airport",
    "city": "Lima",
    "country": "Peru",
    "iata_code": "LIM",
    "icao_code": "SPIM",
    "latitude": -12.0219,
    "longitude": -77.114305,
    "altitude": 113,
    "timezone_offset": -5.0,
    "timezone": "U",
    "type": "America/Lima",
    "region": "airport"
  },
  {
    "name": "Simón Bolívar International Airport",
    "city": "Caracas",
    "country": "Venezuela",
    "iata_code": "CCS",
    "icao_code": "SVMI",
    "latitude": 10.601194,
    "longitude": -66.991222,
    "altitude": 234,
    "timezone_offset": -4.0,
    "timezone": "U",
    "type": "America/Caracas",
    "region": "airport"
  },
  {
    "name": "Luis Munoz Marin International Airport",
    "city": "San Juan",
    "country": "Puerto Rico",
    "iata_code": "SJU",
    "icao_code": "TJSJ",
    "latitude": 18.4393997192,
    "longitude": -66.0018005371,
    "altitude": 9,
    "timezone_offset": -4.0,
    "timezone": "U",
    "type": "America/Puerto_Rico",
    "region": "airport"
  },
  {
    "name": "Heydar Aliyev International Airport",
    "city": "Baku",
    "country": "Azerbaijan",
    "iata_code": "GYD",
    "icao_code": "UBBB",
    "latitude": 40.467498779296875,
    "longitude": 50.04669952392578,
    "altitude": 10,
    "timezone_offset": 4.0,
    "timezone": "E",
    "type": "Asia/Baku",
    "region": "airport"
  },
  {
    "name": "Chhatrapati Shivaji International Airport",
    "city": "Mumbai",
    "country": "India",
    "iata_code": "BOM",
    "icao_code": "VABB",
    "latitude": 19.0886993408,
    "longitude": 72.8678970337,
    "altitude": 39,
    "timezone_offset": 5.5,
    "timezone": "N",
    "type": "Asia/Calcutta",
    "region": "airport"
  },
  {
    "name": "Bandaranaike International Colombo Airport",
    "city": "Colombo",
    "country": "Sri Lanka",
    "iata_code": "CMB",
    "icao_code": "VCBI",
    "latitude": 7.180759906768799,
    "longitude": 79.88410186767578,
    "altitude": 30,
    "timezone_offset": 5.5,
    "timezone": "U",
    "type": "Asia/Colombo",
    "region": "airport"
  },
  {
    "name": "Hazrat Shahjalal International Airport",
    "city": "Dhaka",
    "country": "Bangladesh",
    "iata_code": "DAC",
    "icao_code": "VGZR",
    "latitude": 23.843347,
    "longitude": 90.397783,
    "altitude": 30,
    "timezone_offset": 6.0,
    "timezone": "U",
    "type": "Asia/Dhaka",
    "region": "airport"
  },
  {
    "name": "Hong Kong International Airport",
    "city": "Hong Kong",
    "country": "Hong Kong",
    "iata_code": "HKG",
    "icao_code": "VHHH",
    "latitude": 22.308901,
    "longitude": 113.915001,
    "altitude": 28,
    "timezone_offset": 8.0,
    "timezone": "U",
    "type": "Asia/Hong_Kong",
    "region": "airport"
  },
  {
    "name": "Indira Gandhi International Airport",
    "city": "Delhi",
    "country": "India",
    "iata_code": "DEL",
    "icao_code": "VIDP",
    "latitude": 28.5665,
    "longitude": 77.103104,
    "altitude": 777,
    "timezone_offset": 5.5,
    "timezone": "N",
    "type": "Asia/Calcutta",
    "region": "airport"
  },
  {
    "name": "Tribhuvan International Airport",
    "city": "Kathmandu",
    "country": "Nepal",
    "iata_code": "KTM",
    "icao_code": "VNKT",
    "latitude": 27.6966,
    "longitude": 85.3591,
    "altitude": 4390,
    "timezone_offset": 5.75,
    "timezone": "N",
    "type": "Asia/Katmandu",
    "region": "airport"
  },
  {
    "name": "Kempegowda International Airport",
    "city": "Bangalore",
    "country": "India",
    "iata_code": "BLR",
    "icao_code": "VOBL",
    "latitude": 13.1979,
    "longitude": 77.706299,
    "altitude": 3000,
    "timezone_offset": 5.5,
    "timezone": "N",
    "type": "Asia/Calcutta",
    "region": "airport"
  },
  {
    "name": "Cochin International Airport",
    "city": "Kochi",
    "country": "India",
    "iata_code": "COK",
    "icao_code": "VOCI",
    "latitude": 10.152,
    "longitude": 76.401901,
    "altitude": 30,
    "timezone_offset": 5.5,
    "timezone": "N",
    "type": "Asia/Calcutta",
    "region": "airport"
  },
  {
    "name": "Chennai International Airport",
    "city": "Madras",
    "country": "India",
    "iata_code": "MAA",
    "icao_code": "VOMM",
    "latitude": 12.990005493164062,
    "longitude": 80.16929626464844,
    "altitude": 52,
    "timezone_offset": 5.5,
    "timezone": "N",
    "type": "Asia/Calcutta",
    "region": "airport"
  },
  {
    "name": "Malé International Airport",
    "city": "Male",
    "country": "Maldives",
    "iata_code": "MLE",
    "icao_code": "VRMM",
    "latitude": 4.191830158233643,
    "longitude": 73.52909851074219,
    "altitude": 6,
    "timezone_offset": 5.0,
    "timezone": "U",
    "type": "Indian/Maldives",
    "region": "airport"
  },
  {
    "name": "Phuket International Airport",
    "city": "Phuket",
    "country": "Thailand",
    "iata_code": "HKT",
    "icao_code": "VTSP",
    "latitude": 8.1132,
    "longitude": 98.316902,
    "altitude": 82,
    "timezone_offset": 7.0,
    "timezone": "U",
    "type": "Asia/Bangkok",
    "region": "airport"
  },
  {
    "name": "Noi Bai International Airport",
    "city": "Hanoi",
    "country": "Vietnam",
    "iata_code": "HAN",
    "icao_code": "VVNB",
    "latitude": 21.221200942993164,
    "longitude": 105.80699920654297,
    "altitude": 39,
    "timezone_offset": 7.0,
    "timezone": "U",
    "type": "Asia/Saigon",
    "region": "airport"
  },
  {
    "name": "Tan Son Nhat International Airport",
    "city": "Ho Chi Minh City",
    "country": "Vietnam",
    "iata_code": "SGN",
    "icao_code": "VVTS",
    "latitude": 10.8187999725,
    "longitude": 106.652000427,
    "altitude": 33,
    "timezone_offset": 7.0,
    "timezone": "U",
    "type": "Asia/Saigon",
    "region": "airport"
  },
  {
    "name": "Soekarno-Hatta International Airport",
    "city": "Jakarta",
    "country": "Indonesia",
    "iata_code": "CGK",
    "icao_code": "WIII",
    "latitude": -6.1255698204,
    "longitude": 106.65599823,
    "altitude": 34,
    "timezone_offset": 7.0,
    "timezone": "N",
    "type": "Asia/Jakarta",
    "region": "airport"
  },
  {
    "name": "Kuala Lumpur International Airport",
    "city": "Kuala Lumpur",
    "country": "Malaysia",
    "iata_code": "KUL",
    "icao_code": "WMKK",
    "latitude": 2.745579957962,
    "longitude": 101.70999908447,
    "altitude": 69,
    "timezone_offset": 8.0,
    "timezone": "N",
    "type": "Asia/Kuala_Lumpur",
    "region": "airport"
  },
  {
    "name": "Singapore Changi Airport",
    "city": "Singapore",
    "country": "Singapore",
    "iata_code": "SIN",
    "icao_code": "WSSS",
    "latitude": 1.35019,
    "longitude": 103.994003,
    "altitude": 22,
    "timezone_offset": 8.0,
    "timezone": "N",
    "type": "Asia/Singapore",
    "region": "airport"
  },
  {
    "name": "Brisbane International Airport",
    "city": "Brisbane",
    "country": "Australia",
    "iata_code": "BNE",
    "icao_code": "YBBN",
    "latitude": -27.384199142456055,
    "longitude": 153.11700439453125,
    "altitude": 13,
    "timezone_offset": 10.0,
    "timezone": "N",
    "type": "Australia/Brisbane",
    "region": "airport"
  },
  {
    "name": "Melbourne International Airport",
    "city": "Melbourne",
    "country": "Australia",
    "iata_code": "MEL",
    "icao_code": "YMML",
    "latitude": -37.673302,
    "longitude": 144.843002,
    "altitude": 434,
    "timezone_offset": 10.0,
    "timezone": "O",
    "type": "Australia/Hobart",
    "region": "airport"
  },
  {
    "name": "Perth International Airport",
    "city": "Perth",
    "country": "Australia",
    "iata_code": "PER",
    "icao_code": "YPPH",
    "latitude": -31.94029998779297,
    "longitude": 115.96700286865234,
    "altitude": 67,
    "timezone_offset": 8.0,
    "timezone": "N",
    "type": "Australia/Perth",
    "region": "airport"
  },
  {
    "name": "Sydney Kingsford Smith International Airport",
    "city": "Sydney",
    "country": "Australia",
    "iata_code": "SYD",
    "icao_code": "YSSY",
    "latitude": -33.94609832763672,
    "longitude": 151.177001953125,
    "altitude": 21,
    "timezone_offset": 10.0,
    "timezone": "O",
    "type": "Australia/Sydney",
    "region": "airport"
  },
  {
    "name": "Beijing Capital International Airport",
    "city": "Beijing",
    "country": "China",
    "iata_code": "PEK",
    "icao_code": "ZBAA",
    "latitude": 40.080101013183594,
    "longitude": 116.58499908447266,
    "altitude": 116,
    "timezone_offset": 8.0,
    "timezone": "U",
    "type": "Asia/Shanghai",
    "region": "airport"
  },
  {
    "name": "Guangzhou Baiyun International Airport",
    "city": "Guangzhou",
    "country": "China",
    "iata_code": "CAN",
    "icao_code": "ZGGG",
    "latitude": 23.39240074157715,
    "longitude": 113.29900360107422,
    "altitude": 50,
    "timezone_offset": 8.0,
    "timezone": "U",
    "type": "Asia/Shanghai",
    "region": "airport"
  },
  {
    "name": "Changsha Huanghua International Airport",
    "city": "Changcha",
    "country": "China",
    "iata_code": "CSX",
    "icao_code": "ZGHA",
    "latitude": 28.189199447599997,
    "longitude": 113.220001221,
    "altitude": 217,
    "timezone_offset": 8.0,
    "timezone": "U",
    "type": "Asia/Shanghai",
    "region": "airport"
  },
  {
    "name": "Shenzhen Bao'an International Airport",
    "city": "Shenzhen",
    "country": "China",
    "iata_code": "SZX",
    "icao_code": "ZGSZ",
    "latitude": 22.639299392700195,
    "longitude": 113.81099700927734,
    "altitude": 13,
    "timezone_offset": 8.0,
    "timezone": "U",
    "type": "Asia/Shanghai",
    "region": "airport"
  },
  {
    "name": "Xi'an Xianyang International Airport",
    "city": "Xi'an",
    "country": "China",
    "iata_code": "XIY",
    "icao_code": "ZLXY",
    "latitude": 34.447102,
    "longitude": 108.751999,
    "altitude": 1572,
    "timezone_offset": 8.0,
    "timezone": "U",
    "type": "Asia/Shanghai",
    "region": "airport"
  },
  {
    "name": "Kunming Changshui International Airport",
    "city": "Kunming",
    "country": "China",
    "iata_code": "KMG",
    "icao_code": "ZPPP",
    "latitude": 25.1019444,
    "longitude": 102.9291667,
    "altitude": 6903,
    "timezone_offset": 8.0,
    "timezone": "N",
    "type": "Asia/Shanghai",
    "region": "airport"
  },
  {
    "name": "Shanghai Hongqiao International Airport",
    "city": "Shanghai",
    "country": "China",
    "iata_code": "SHA",
    "icao_code": "ZSSS",
    "latitude": 31.197900772094727,
    "longitude": 121.33599853515625,
    "altitude": 10,
    "timezone_offset": 8.0,
    "timezone": "U",
    "type": "Asia/Shanghai",
    "region": "airport"
  },
  {
    "name": "Chengdu Shuangliu International Airport",
    "city": "Chengdu",
    "country": "China",
    "iata_code": "CTU",
    "icao_code": "ZUUU",
    "latitude": 30.578500747680664,
    "longitude": 103.9469985961914,
    "altitude": 1625,
    "timezone_offset": 8.0,
    "timezone": "U",
    "type": "Asia/Shanghai",
    "region": "airport"
  },
  {
    "name": "Shanghai Pudong International Airport",
    "city": "Shanghai",
    "country": "China",
    "iata_code": "PVG",
    "icao_code": "ZSPD",
    "latitude": 31.143400192260742,
    "longitude": 121.80500030517578,
    "altitude": 13,
    "timezone_offset": 8.0,
    "timezone": "U",
    "type": "Asia/Shanghai",
    "region": "airport"
  },
  {
    "name": "General Edward Lawrence Logan International Airport",
    "city": "Boston",
    "country": "United States",
    "iata_code": "BOS",
    "icao_code": "KBOS",
    "latitude": 42.36429977,
    "longitude": -71.00520325,
    "altitude": 20,
    "timezone_offset": -5.0,
    "timezone": "A",
    "type": "America/New_York",
    "region": "airport"
  },
  {
    "name": "Metropolitan Oakland International Airport",
    "city": "Oakland",
    "country": "United States",
    "iata_code": "OAK",
    "icao_code": "KOAK",
    "latitude": 37.721298,
    "longitude": -122.221001,
    "altitude": 9,
    "timezone_offset": -8.0,
    "timezone": "A",
    "type": "America/Los_Angeles",
    "region": "airport"
  },
  {
    "name": "Eppley Airfield",
    "city": "Omaha",
    "country": "United States",
    "iata_code": "OMA",
    "icao_code": "KOMA",
    "latitude": 41.3032,
    "longitude": -95.894096,
    "altitude": 984,
    "timezone_offset": -6.0,
    "timezone": "A",
    "type": "America/Chicago",
    "region": "airport"
  },
  {
    "name": "Kansas City International Airport",
    "city": "Kansas City",
    "country": "United States",
    "iata_code": "MCI",
    "icao_code": "KMCI",
    "latitude": 39.2976,
    "longitude": -94.713898,
    "altitude": 1026,
    "timezone_offset": -6.0,
    "timezone": "A",
    "type": "America/Chicago",
    "region": "airport"
  },
  {
    "name": "Phoenix Sky Harbor International Airport",
    "city": "Phoenix",
    "country": "United States",
    "iata_code": "PHX",
    "icao_code": "KPHX",
    "latitude": 33.43429946899414,
    "longitude": -112.01200103759766,
    "altitude": 1135,
    "timezone_offset": -7.0,
    "timezone": "N",
    "type": "America/Phoenix",
    "region": "airport"
  },
  {
    "name": "Spokane International Airport",
    "city": "Spokane",
    "country": "United States",
    "iata_code": "GEG",
    "icao_code": "KGEG",
    "latitude": 47.61989974975586,
    "longitude": -117.53399658203125,
    "altitude": 2376,
    "timezone_offset": -8.0,
    "timezone": "A",
    "type": "America/Los_Angeles",
    "region": "airport"
  },
  {
    "name": "San Francisco International Airport",
    "city": "San Francisco",
    "country": "United States",
    "iata_code": "SFO",
    "icao_code": "KSFO",
    "latitude": 37.61899948120117,
    "longitude": -122.375,
    "altitude": 13,
    "timezone_offset": -8.0,
    "timezone": "A",
    "type": "America/Los_Angeles",
    "region": "airport"
  },
  {
    "name": "Memphis International Airport",
    "city": "Memphis",
    "country": "United States",
    "iata_code": "MEM",
    "icao_code": "KMEM",
    "latitude": 35.04240036010742,
    "longitude": -89.97669982910156,
    "altitude": 341,
    "timezone_offset": -6.0,
    "timezone": "A",
    "type": "America/Chicago",
    "region": "airport"
  },
  {
    "name": "Los Angeles International Airport",
    "city": "Los Angeles",
    "country": "United States",
    "iata_code": "LAX",
    "icao_code": "KLAX",
    "latitude": 33.94250107,
    "longitude": -118.4079971,
    "altitude": 125,
    "timezone_offset": -8.0,
    "timezone": "A",
    "type": "America/Los_Angeles",
    "region": "airport"
  },
  {
    "name": "Cleveland Hopkins International Airport",
    "city": "Cleveland",
    "country": "United States",
    "iata_code": "CLE",
    "icao_code": "KCLE",
    "latitude": 41.4117012024,
    "longitude": -81.8498001099,
    "altitude": 791,
    "timezone_offset": -5.0,
    "timezone": "A",
    "type": "America/New_York",
    "region": "airport"
  },
  {
    "name": "Cincinnati Northern Kentucky International Airport",
    "city": "Cincinnati",
    "country": "United States",
    "iata_code": "CVG",
    "icao_code": "KCVG",
    "latitude": 39.0488014221,
    "longitude": -84.6678009033,
    "altitude": 896,
    "timezone_offset": -5.0,
    "timezone": "A",
    "type": "America/New_York",
    "region": "airport"
  },
  {
    "name": "Juneau International Airport",
    "city": "Juneau",
    "country": "United States",
    "iata_code": "JNU",
    "icao_code": "PAJN",
    "latitude": 58.35499954223633,
    "longitude": -134.5760040283203,
    "altitude": 21,
    "timezone_offset": -9.0,
    "timezone": "A",
    "type": "America/Anchorage",
    "region": "airport"
  },
  {
    "name": "Newark Liberty International Airport",
    "city": "Newark",
    "country": "United States",
    "iata_code": "EWR",
    "icao_code": "KEWR",
    "latitude": 40.692501068115234,
    "longitude": -74.168701171875,
    "altitude": 18,
    "timezone_offset": -5.0,
    "timezone": "A",
    "type": "America/New_York",
    "region": "airport"
  },
  {
    "name": "Boise Air Terminal/Gowen Field",
    "city": "Boise",
    "country": "United States",
    "iata_code": "BOI",
    "icao_code": "KBOI",
    "latitude": 43.5644,
    "longitude": -116.223,
    "altitude": 2871,
    "timezone_offset": -7.0,
    "timezone": "A",
    "type": "America/Denver",
    "region": "airport"
  },
  {
    "name": "Dallas Love Field",
    "city": "Dallas",
    "country": "United States",
    "iata_code": "DAL",
    "icao_code": "KDAL",
    "latitude": 32.847099,
    "longitude": -96.851799,
    "altitude": 487,
    "timezone_offset": -6.0,
    "timezone": "A",
    "type": "America/Chicago",
    "region": "airport"
  },
  {
    "name": "Myrtle Beach International Airport",
    "city": "Myrtle Beach",
    "country": "United States",
    "iata_code": "MYR",
    "icao_code": "KMYR",
    "latitude": 33.6796989441,
    "longitude": -78.9282989502,
    "altitude": 25,
    "timezone_offset": -5.0,
    "timezone": "A",
    "type": "America/New_York",
    "region": "airport"
  },
  {
    "name": "Fort Lauderdale Hollywood International Airport",
    "city": "Fort Lauderdale",
    "country": "United States",
    "iata_code": "FLL",
    "icao_code": "KFLL",
    "latitude": 26.072599,
    "longitude": -80.152702,
    "altitude": 9,
    "timezone_offset": -5.0,
    "timezone": "A",
    "type": "America/New_York",
    "region": "airport"
  },
  {
    "name": "Salt Lake City International Airport",
    "city": "Salt Lake City",
    "country": "United States",
    "iata_code": "SLC",
    "icao_code": "KSLC",
    "latitude": 40.78839874267578,
    "longitude": -111.97799682617188,
    "altitude": 4227,
    "timezone_offset": -7.0,
    "timezone": "A",
    "type": "America/Denver",
    "region": "airport"
  },
  {
    "name": "George Bush Intercontinental Houston Airport",
    "city": "Houston",
    "country": "United States",
    "iata_code": "IAH",
    "icao_code": "KIAH",
    "latitude": 29.984399795532227,
    "longitude": -95.34140014648438,
    "altitude": 97,
    "timezone_offset": -6.0,
    "timezone": "A",
    "type": "America/Chicago",
    "region": "airport"
  },
  {
    "name": "El Paso International Airport",
    "city": "El Paso",
    "country": "United States",
    "iata_code": "ELP",
    "icao_code": "KELP",
    "latitude": 31.80719948,
    "longitude": -106.3779984,
    "altitude": 3959,
    "timezone_offset": -7.0,
    "timezone": "A",
    "type": "America/Denver",
    "region": "airport"
  },
  {
    "name": "Valley International Airport",
    "city": "Harlingen",
    "country": "United States",
    "iata_code": "HRL",
    "icao_code": "KHRL",
    "latitude": 26.228500366210938,
    "longitude": -97.65440368652344,
    "altitude": 36,
    "timezone_offset": -6.0,
    "timezone": "A",
    "type": "America/Chicago",
    "region": "airport"
  },
  {
    "name": "Pensacola Regional Airport",
    "city": "Pensacola",
    "country": "United States",
    "iata_code": "PNS",
    "icao_code": "KPNS",
    "latitude": 30.473400115967,
    "longitude": -87.186599731445,
    "altitude": 121,
    "timezone_offset": -6.0,
    "timezone": "A",
    "type": "America/Chicago",
    "region": "airport"
  },
  {
    "name": "William P Hobby Airport",
    "city": "Houston",
    "country": "United States",
    "iata_code": "HOU",
    "icao_code": "KHOU",
    "latitude": 29.64539909,
    "longitude": -95.27890015,
    "altitude": 46,
    "timezone_offset": -6.0,
    "timezone": "A",
    "type": "America/Chicago",
    "region": "airport"
  },
  {
    "name": "Pittsburgh International Airport",
    "city": "Pittsburgh",
    "country": "United States",
    "iata_code": "PIT",
    "icao_code": "KPIT",
    "latitude": 40.49150085,
    "longitude": -80.23290253,
    "altitude": 1203,
    "timezone_offset": -5.0,
    "timezone": "A",
    "type": "America/New_York",
    "region": "airport"
  },
  {
    "name": "Wiley Post Will Rogers Memorial Airport",
    "city": "Barrow",
    "country": "United States",
    "iata_code": "BRW",
    "icao_code": "PABR",
    "latitude": 71.285402,
    "longitude": -156.766008,
    "altitude": 44,
    "timezone_offset": -9.0,
    "timezone": "A",
    "type": "America/Anchorage",
    "region": "airport"
  },
  {
    "name": "Miami International Airport",
    "city": "Miami",
    "country": "United States",
    "iata_code": "MIA",
    "icao_code": "KMIA",
    "latitude": 25.79319953918457,
    "longitude": -80.29060363769531,
    "altitude": 8,
    "timezone_offset": -5.0,
    "timezone": "A",
    "type": "America/New_York",
    "region": "airport"
  },
  {
    "name": "Seattle Tacoma International Airport",
    "city": "Seattle",
    "country": "United States",
    "iata_code": "SEA",
    "icao_code": "KSEA",
    "latitude": 47.449001,
    "longitude": -122.308998,
    "altitude": 433,
    "timezone_offset": -8.0,
    "timezone": "A",
    "type": "America/Los_Angeles",
    "region": "airport"
  },
  {
    "name": "Jackson-Medgar Wiley Evers International Airport",
    "city": "Jackson",
    "country": "United States",
    "iata_code": "JAN",
    "icao_code": "KJAN",
    "latitude": 32.3111991882,
    "longitude": -90.0758972168,
    "altitude": 346,
    "timezone_offset": -6.0,
    "timezone": "A",
    "type": "America/Chicago",
    "region": "airport"
  },
  {
    "name": "Long Beach /Daugherty Field/ Airport",
    "city": "Long Beach",
    "country": "United States",
    "iata_code": "LGB",
    "icao_code": "KLGB",
    "latitude": 33.81769943,
    "longitude": -118.1520004,
    "altitude": 60,
    "timezone_offset": -8.0,
    "timezone": "A",
    "type": "America/Los_Angeles",
    "region": "airport"
  },
  {
    "name": "Indianapolis International Airport",
    "city": "Indianapolis",
    "country": "United States",
    "iata_code": "IND",
    "icao_code": "KIND",
    "latitude": 39.7173,
    "longitude": -86.294403,
    "altitude": 797,
    "timezone_offset": -5.0,
    "timezone": "A",
    "type": "America/New_York",
    "region": "airport"
  },
  {
    "name": "Westchester County Airport",
    "city": "White Plains",
    "country": "United States",
    "iata_code": "HPN",
    "icao_code": "KHPN",
    "latitude": 41.06700134277344,
    "longitude": -73.70760345458984,
    "altitude": 439,
    "timezone_offset": -5.0,
    "timezone": "A",
    "type": "America/New_York",
    "region": "airport"
  },
  {
    "name": "Bethel Airport",
    "city": "Bethel",
    "country": "United States",
    "iata_code": "BET",
    "icao_code": "PABE",
    "latitude": 60.77980042,
    "longitude": -161.8379974,
    "altitude": 126,
    "timezone_offset": -9.0,
    "timezone": "A",
    "type": "America/Anchorage",
    "region": "airport"
  },
  {
    "name": "Richmond International Airport",
    "city": "Richmond",
    "country": "United States",
    "iata_code": "RIC",
    "icao_code": "KRIC",
    "latitude": 37.50519943237305,
    "longitude": -77.3197021484375,
    "altitude": 167,
    "timezone_offset": -5.0,
    "timezone": "A",
    "type": "America/New_York",
    "region": "airport"
  },
  {
    "name": "Norfolk International Airport",
    "city": "Norfolk",
    "country": "United States",
    "iata_code": "ORF",
    "icao_code": "KORF",
    "latitude": 36.89459991455078,
    "longitude": -76.20120239257812,
    "altitude": 26,
    "timezone_offset": -5.0,
    "timezone": "A",
    "type": "America/New_York",
    "region": "airport"
  },
  {
    "name": "Savannah Hilton Head International Airport",
    "city": "Savannah",
    "country": "United States",
    "iata_code": "SAV",
    "icao_code": "KSAV",
    "latitude": 32.12760162,
    "longitude": -81.20210266,
    "altitude": 50,
    "timezone_offset": -5.0,
    "timezone": "A",
    "type": "America/New_York",
    "region": "airport"
  },
  {
    "name": "Nome Airport",
    "city": "Nome",
    "country": "United States",
    "iata_code": "OME",
    "icao_code": "PAOM",
    "latitude": 64.51219940185547,
    "longitude": -165.44500732421875,
    "altitude": 37,
    "timezone_offset": -9.0,
    "timezone": "A",
    "type": "America/Anchorage",
    "region": "airport"
  },
  {
    "name": "San Antonio International Airport",
    "city": "San Antonio",
    "country": "United States",
    "iata_code": "SAT",
    "icao_code": "KSAT",
    "latitude": 29.533700942993164,
    "longitude": -98.46980285644531,
    "altitude": 809,
    "timezone_offset": -6.0,
    "timezone": "A",
    "type": "America/Chicago",
    "region": "airport"
  },
  {
    "name": "Greater Rochester International Airport",
    "city": "Rochester",
    "country": "United States",
    "iata_code": "ROC",
    "icao_code": "KROC",
    "latitude": 43.118900299072266,
    "longitude": -77.67240142822266,
    "altitude": 559,
    "timezone_offset": -5.0,
    "timezone": "A",
    "type": "America/New_York",
    "region": "airport"
  },
  {
    "name": "Raleigh Durham International Airport",
    "city": "Raleigh-durham",
    "country": "United States",
    "iata_code": "RDU",
    "icao_code": "KRDU",
    "latitude": 35.877601623535156,
    "longitude": -78.7874984741211,
    "altitude": 435,
    "timezone_offset": -5.0,
    "timezone": "A",
    "type": "America/New_York",
    "region": "airport"
  },
  {
    "name": "Theodore Francis Green State Airport",
    "city": "Providence",
    "country": "United States",
    "iata_code": "PVD",
    "icao_code": "KPVD",
    "latitude": 41.732601,
    "longitude": -71.420403,
    "altitude": 55,
    "timezone_offset": -5.0,
    "timezone": "A",
    "type": "America/New_York",
    "region": "airport"
  },
  {
    "name": "Bob Hope Airport",
    "city": "Burbank",
    "country": "United States",
    "iata_code": "BUR",
    "icao_code": "KBUR",
    "latitude": 34.20069885253906,
    "longitude": -118.35900115966797,
    "altitude": 778,
    "timezone_offset": -8.0,
    "timezone": "A",
    "type": "America/Los_Angeles",
    "region": "airport"
  },
  {
    "name": "Tampa International Airport",
    "city": "Tampa",
    "country": "United States",
    "iata_code": "TPA",
    "icao_code": "KTPA",
    "latitude": 27.975500106811523,
    "longitude": -82.533203125,
    "altitude": 26,
    "timezone_offset": -5.0,
    "timezone": "A",
    "type": "America/New_York",
    "region": "airport"
  },
  {
    "name": "Bill & Hillary Clinton National Airport/Adams Field",
    "city": "Little Rock",
    "country": "United States",
    "iata_code": "LIT",
    "icao_code": "KLIT",
    "latitude": 34.729400634799994,
    "longitude": -92.2242965698,
    "altitude": 262,
    "timezone_offset": -6.0,
    "timezone": "A",
    "type": "America/Chicago",
    "region": "airport"
  },
  {
    "name": "Dallas Fort Worth International Airport",
    "city": "Dallas-Fort Worth",
    "country": "United States",
    "iata_code": "DFW",
    "icao_code": "KDFW",
    "latitude": 32.896801,
    "longitude": -97.038002,
    "altitude": 607,
    "timezone_offset": -6.0,
    "timezone": "A",
    "type": "America/Chicago",
    "region": "airport"
  },
  {
    "name": "Austin Bergstrom International Airport",
    "city": "Austin",
    "country": "United States",
    "iata_code": "AUS",
    "icao_code": "KAUS",
    "latitude": 30.194499969482422,
    "longitude": -97.6698989868164,
    "altitude": 542,
    "timezone_offset": -6.0,
    "timezone": "A",
    "type": "America/Chicago",
    "region": "airport"
  },
  {
    "name": "McGhee Tyson Airport",
    "city": "Knoxville",
    "country": "United States",
    "iata_code": "TYS",
    "icao_code": "KTYS",
    "latitude": 35.81100082,
    "longitude": -83.9940033,
    "altitude": 981,
    "timezone_offset": -5.0,
    "timezone": "A",
    "type": "America/New_York",
    "region": "airport"
  },
  {
    "name": "St Louis Lambert International Airport",
    "city": "St. Louis",
    "country": "United States",
    "iata_code": "STL",
    "icao_code": "KSTL",
    "latitude": 38.748697,
    "longitude": -90.370003,
    "altitude": 618,
    "timezone_offset": -6.0,
    "timezone": "A",
    "type": "America/Chicago",
    "region": "airport"
  },
  {
    "name": "Hartsfield Jackson Atlanta International Airport",
    "city": "Atlanta",
    "country": "United States",
    "iata_code": "ATL",
    "icao_code": "KATL",
    "latitude": 33.6367,
    "longitude": -84.428101,
    "altitude": 1026,
    "timezone_offset": -5.0,
    "timezone": "A",
    "type": "America/New_York",
    "region": "airport"
  },
  {
    "name": "Gerald R. Ford International Airport",
    "city": "Grand Rapids",
    "country": "United States",
    "iata_code": "GRR",
    "icao_code": "KGRR",
    "latitude": 42.88079834,
    "longitude": -85.52279663,
    "altitude": 794,
    "timezone_offset": -5.0,
    "timezone": "A",
    "type": "America/New_York",
    "region": "airport"
  },
  {
    "name": "Fresno Yosemite International Airport",
    "city": "Fresno",
    "country": "United States",
    "iata_code": "FAT",
    "icao_code": "KFAT",
    "latitude": 36.77619934082031,
    "longitude": -119.71800231933594,
    "altitude": 336,
    "timezone_offset": -8.0,
    "timezone": "A",
    "type": "America/Los_Angeles",
    "region": "airport"
  },
  {
    "name": "Nashville International Airport",
    "city": "Nashville",
    "country": "United States",
    "iata_code": "BNA",
    "icao_code": "KBNA",
    "latitude": 36.1245002746582,
    "longitude": -86.6781997680664,
    "altitude": 599,
    "timezone_offset": -6.0,
    "timezone": "A",
    "type": "America/Chicago",
    "region": "airport"
  },
  {
    "name": "Ralph Wien Memorial Airport",
    "city": "Kotzebue",
    "country": "United States",
    "iata_code": "OTZ",
    "icao_code": "PAOT",
    "latitude": 66.88469696,
    "longitude": -162.598999,
    "altitude": 14,
    "timezone_offset": -9.0,
    "timezone": "A",
    "type": "America/Anchorage",
    "region": "airport"
  },
  {
    "name": "La Guardia Airport",
    "city": "New York",
    "country": "United States",
    "iata_code": "LGA",
    "icao_code": "KLGA",
    "latitude": 40.77719879,
    "longitude": -73.87259674,
    "altitude": 21,
    "timezone_offset": -5.0,
    "timezone": "A",
    "type": "America/New_York",
    "region": "airport"
  },
  {
    "name": "Burlington International Airport",
    "city": "Burlington",
    "country": "United States",
    "iata_code": "BTV",
    "icao_code": "KBTV",
    "latitude": 44.471900939899996,
    "longitude": -73.15329742429999,
    "altitude": 335,
    "timezone_offset": -5.0,
    "timezone": "A",
    "type": "America/New_York",
    "region": "airport"
  },
  {
    "name": "Jacksonville International Airport",
    "city": "Jacksonville",
    "country": "United States",
    "iata_code": "JAX",
    "icao_code": "KJAX",
    "latitude": 30.49410057067871,
    "longitude": -81.68789672851562,
    "altitude": 30,
    "timezone_offset": -5.0,
    "timezone": "A",
    "type": "America/New_York",
    "region": "airport"
  },
  {
    "name": "General Mitchell International Airport",
    "city": "Milwaukee",
    "country": "United States",
    "iata_code": "MKE",
    "icao_code": "KMKE",
    "latitude": 42.947200775146484,
    "longitude": -87.89659881591797,
    "altitude": 723,
    "timezone_offset": -6.0,
    "timezone": "A",
    "type": "America/Chicago",
    "region": "airport"
  },
  {
    "name": "Portland International Airport",
    "city": "Portland",
    "country": "United States",
    "iata_code": "PDX",
    "icao_code": "KPDX",
    "latitude": 45.58869934,
    "longitude": -122.5979996,
    "altitude": 31,
    "timezone_offset": -8.0,
    "timezone": "A",
    "type": "America/Los_Angeles",
    "region": "airport"
  },
  {
    "name": "Palm Beach International Airport",
    "city": "West Palm Beach",
    "country": "United States",
    "iata_code": "PBI",
    "icao_code": "KPBI",
    "latitude": 26.68320083618164,
    "longitude": -80.09559631347656,
    "altitude": 19,
    "timezone_offset": -5.0,
    "timezone": "A",
    "type": "America/New_York",
    "region": "airport"
  },
  {
    "name": "Boeing Field King County International Airport",
    "city": "Seattle",
    "country": "United States",
    "iata_code": "BFI",
    "icao_code": "KBFI",
    "latitude": 47.529998779296875,
    "longitude": -122.302001953125,
    "altitude": 21,
    "timezone_offset": -8.0,
    "timezone": "A",
    "type": "America/Los_Angeles",
    "region": "airport"
  },
  {
    "name": "Daniel K Inouye International Airport",
    "city": "Honolulu",
    "country": "United States",
    "iata_code": "HNL",
    "icao_code": "PHNL",
    "latitude": 21.32062,
    "longitude": -157.924228,
    "altitude": 13,
    "timezone_offset": -10.0,
    "timezone": "N",
    "type": "Pacific/Honolulu",
    "region": "airport"
  },
  {
    "name": "San Diego International Airport",
    "city": "San Diego",
    "country": "United States",
    "iata_code": "SAN",
    "icao_code": "KSAN",
    "latitude": 32.7336006165,
    "longitude": -117.190002441,
    "altitude": 17,
    "timezone_offset": -8.0,
    "timezone": "A",
    "type": "America/Los_Angeles",
    "region": "airport"
  },
  {
    "name": "Ontario International Airport",
    "city": "Ontario",
    "country": "United States",
    "iata_code": "ONT",
    "icao_code": "KONT",
    "latitude": 34.055999755859375,
    "longitude": -117.60099792480469,
    "altitude": 944,
    "timezone_offset": -8.0,
    "timezone": "A",
    "type": "America/Los_Angeles",
    "region": "airport"
  },
  {
    "name": "Corpus Christi International Airport",
    "city": "Corpus Christi",
    "country": "United States",
    "iata_code": "CRP",
    "icao_code": "KCRP",
    "latitude": 27.77039909362793,
    "longitude": -97.5011978149414,
    "altitude": 44,
    "timezone_offset": -6.0,
    "timezone": "A",
    "type": "America/Chicago",
    "region": "airport"
  },
  {
    "name": "Syracuse Hancock International Airport",
    "city": "Syracuse",
    "country": "United States",
    "iata_code": "SYR",
    "icao_code": "KSYR",
    "latitude": 43.11119842529297,
    "longitude": -76.1063003540039,
    "altitude": 421,
    "timezone_offset": -5.0,
    "timezone": "A",
    "type": "America/New_York",
    "region": "airport"
  },
  {
    "name": "Chicago Midway International Airport",
    "city": "Chicago",
    "country": "United States",
    "iata_code": "MDW",
    "icao_code": "KMDW",
    "latitude": 41.785999,
    "longitude": -87.752403,
    "altitude": 620,
    "timezone_offset": -6.0,
    "timezone": "A",
    "type": "America/Chicago",
    "region": "airport"
  },
  {
    "name": "Norman Y. Mineta San Jose International Airport",
    "city": "San Jose",
    "country": "United States",
    "iata_code": "SJC",
    "icao_code": "KSJC",
    "latitude": 37.362598,
    "longitude": -121.929001,
    "altitude": 62,
    "timezone_offset": -8.0,
    "timezone": "A",
    "type": "America/Los_Angeles",
    "region": "airport"
  },
  {
    "name": "Denver International Airport",
    "city": "Denver",
    "country": "United States",
    "iata_code": "DEN",
    "icao_code": "KDEN",
    "latitude": 39.861698150635,
    "longitude": -104.672996521,
    "altitude": 5431,
    "timezone_offset": -7.0,
    "timezone": "A",
    "type": "America/Denver",
    "region": "airport"
  },
  {
    "name": "Philadelphia International Airport",
    "city": "Philadelphia",
    "country": "United States",
    "iata_code": "PHL",
    "icao_code": "KPHL",
    "latitude": 39.87189865112305,
    "longitude": -75.24109649658203,
    "altitude": 36,
    "timezone_offset": -5.0,
    "timezone": "A",
    "type": "America/New_York",
    "region": "airport"
  },
  {
    "name": "John Glenn Columbus International Airport",
    "city": "Columbus",
    "country": "United States",
    "iata_code": "CMH",
    "icao_code": "KCMH",
    "latitude": 39.998001,
    "longitude": -82.891899,
    "altitude": 815,
    "timezone_offset": -5.0,
    "timezone": "A",
    "type": "America/New_York",
    "region": "airport"
  },
  {
    "name": "Ted Stevens Anchorage International Airport",
    "city": "Anchorage",
    "country": "United States",
    "iata_code": "ANC",
    "icao_code": "PANC",
    "latitude": 61.174400329589844,
    "longitude": -149.99600219726562,
    "altitude": 152,
    "timezone_offset": -9.0,
    "timezone": "A",
    "type": "America/Anchorage",
    "region": "airport"
  },
  {
    "name": "Bellingham International Airport",
    "city": "Bellingham",
    "country": "United States",
    "iata_code": "BLI",
    "icao_code": "KBLI",
    "latitude": 48.79280090332031,
    "longitude": -122.53800201416016,
    "altitude": 170,
    "timezone_offset": -8.0,
    "timezone": "A",
    "type": "America/Los_Angeles",
    "region": "airport"
  },
  {
    "name": "Mobile Regional Airport",
    "city": "Mobile",
    "country": "United States",
    "iata_code": "MOB",
    "icao_code": "KMOB",
    "latitude": 30.691200256348,
    "longitude": -88.242797851562,
    "altitude": 219,
    "timezone_offset": -6.0,
    "timezone": "A",
    "type": "America/Chicago",
    "region": "airport"
  },
  {
    "name": "Southwest Florida International Airport",
    "city": "Fort Myers",
    "country": "United States",
    "iata_code": "RSW",
    "icao_code": "KRSW",
    "latitude": 26.53619956970215,
    "longitude": -81.75520324707031,
    "altitude": 30,
    "timezone_offset": -5.0,
    "timezone": "A",
    "type": "America/New_York",
    "region": "airport"
  },
  {
    "name": "John F Kennedy International Airport",
    "city": "New York",
    "country": "United States",
    "iata_code": "JFK",
    "icao_code": "KJFK",
    "latitude": 40.63980103,
    "longitude": -73.77890015,
    "altitude": 13,
    "timezone_offset": -5.0,
    "timezone": "A",
    "type": "America/New_York",
    "region": "airport"
  },
  {
    "name": "Charleston Air Force Base-International Airport",
    "city": "Charleston",
    "country": "United States",
    "iata_code": "CHS",
    "icao_code": "KCHS",
    "latitude": 32.89860153,
    "longitude": -80.04049683,
    "altitude": 46,
    "timezone_offset": -5.0,
    "timezone": "A",
    "type": "America/New_York",
    "region": "airport"
  },
  {
    "name": "Reno Tahoe International Airport",
    "city": "Reno",
    "country": "United States",
    "iata_code": "RNO",
    "icao_code": "KRNO",
    "latitude": 39.49909973144531,
    "longitude": -119.76799774169922,
    "altitude": 4415,
    "timezone_offset": -8.0,
    "timezone": "A",
    "type": "America/Los_Angeles",
    "region": "airport"
  },
  {
    "name": "Birmingham-Shuttlesworth International Airport",
    "city": "Birmingham",
    "country": "United States",
    "iata_code": "BHM",
    "icao_code": "KBHM",
    "latitude": 33.56290054,
    "longitude": -86.75350189,
    "altitude": 650,
    "timezone_offset": -6.0,
    "timezone": "A",
    "type": "America/Chicago",
    "region": "airport"
  },
  {
    "name": "Sacramento International Airport",
    "city": "Sacramento",
    "country": "United States",
    "iata_code": "SMF",
    "icao_code": "KSMF",
    "latitude": 38.69540023803711,
    "longitude": -121.59100341796875,
    "altitude": 27,
    "timezone_offset": -8.0,
    "timezone": "A",
    "type": "America/Los_Angeles",
    "region": "airport"
  },
  {
    "name": "City of Colorado Springs Municipal Airport",
    "city": "Colorado Springs",
    "country": "United States",
    "iata_code": "COS",
    "icao_code": "KCOS",
    "latitude": 38.805801,
    "longitude": -104.700996,
    "altitude": 6187,
    "timezone_offset": -7.0,
    "timezone": "A",
    "type": "America/Denver",
    "region": "airport"
  },
  {
    "name": "Buffalo Niagara International Airport",
    "city": "Buffalo",
    "country": "United States",
    "iata_code": "BUF",
    "icao_code": "KBUF",
    "latitude": 42.94049835,
    "longitude": -78.73220062,
    "altitude": 728,
    "timezone_offset": -5.0,
    "timezone": "A",
    "type": "America/New_York",
    "region": "airport"
  },
  {
    "name": "Snohomish County (Paine Field) Airport",
    "city": "Everett",
    "country": "United States",
    "iata_code": "PAE",
    "icao_code": "KPAE",
    "latitude": 47.90629959,
    "longitude": -122.2819977,
    "altitude": 606,
    "timezone_offset": -8.0,
    "timezone": "A",
    "type": "America/Los_Angeles",
    "region": "airport"
  },
  {
    "name": "Bradley International Airport",
    "city": "Windsor Locks",
    "country": "United States",
    "iata_code": "BDL",
    "icao_code": "KBDL",
    "latitude": 41.9388999939,
    "longitude": -72.68319702149999,
    "altitude": 173,
    "timezone_offset": -5.0,
    "timezone": "A",
    "type": "America/New_York",
    "region": "airport"
  },
  {
    "name": "Mc Allen Miller International Airport",
    "city": "Mcallen",
    "country": "United States",
    "iata_code": "MFE",
    "icao_code": "KMFE",
    "latitude": 26.17580032,
    "longitude": -98.23860168,
    "altitude": 107,
    "timezone_offset": -6.0,
    "timezone": "A",
    "type": "America/Chicago",
    "region": "airport"
  },
  {
    "name": "Lubbock Preston Smith International Airport",
    "city": "Lubbock",
    "country": "United States",
    "iata_code": "LBB",
    "icao_code": "KLBB",
    "latitude": 33.663601,
    "longitude": -101.822998,
    "altitude": 3282,
    "timezone_offset": -6.0,
    "timezone": "A",
    "type": "America/Chicago",
    "region": "airport"
  },
  {
    "name": "Chicago O'Hare International Airport",
    "city": "Chicago",
    "country": "United States",
    "iata_code": "ORD",
    "icao_code": "KORD",
    "latitude": 41.9786,
    "longitude": -87.9048,
    "altitude": 672,
    "timezone_offset": -6.0,
    "timezone": "A",
    "type": "America/Chicago",
    "region": "airport"
  },
  {
    "name": "Fairbanks International Airport",
    "city": "Fairbanks",
    "country": "United States",
    "iata_code": "FAI",
    "icao_code": "PAFA",
    "latitude": 64.81510162,
    "longitude": -147.8560028,
    "altitude": 439,
    "timezone_offset": -9.0,
    "timezone": "A",
    "type": "America/Anchorage",
    "region": "airport"
  },
  {
    "name": "Palm Springs International Airport",
    "city": "Palm Springs",
    "country": "United States",
    "iata_code": "PSP",
    "icao_code": "KPSP",
    "latitude": 33.8297004699707,
    "longitude": -116.50700378417969,
    "altitude": 477,
    "timezone_offset": -8.0,
    "timezone": "A",
    "type": "America/Los_Angeles",
    "region": "airport"
  },
  {
    "name": "Rick Husband Amarillo International Airport",
    "city": "Amarillo",
    "country": "United States",
    "iata_code": "AMA",
    "icao_code": "KAMA",
    "latitude": 35.219398,
    "longitude": -101.706001,
    "altitude": 3607,
    "timezone_offset": -6.0,
    "timezone": "A",
    "type": "America/Chicago",
    "region": "airport"
  },
  {
    "name": "Baltimore/Washington International Thurgood Marshall Airport",
    "city": "Baltimore",
    "country": "United States",
    "iata_code": "BWI",
    "icao_code": "KBWI",
    "latitude": 39.1754,
    "longitude": -76.668297,
    "altitude": 146,
    "timezone_offset": -5.0,
    "timezone": "A",
    "type": "America/New_York",
    "region": "airport"
  },
  {
    "name": "Tulsa International Airport",
    "city": "Tulsa",
    "country": "United States",
    "iata_code": "TUL",
    "icao_code": "KTUL",
    "latitude": 36.19839859008789,
    "longitude": -95.88809967041016,
    "altitude": 677,
    "timezone_offset": -6.0,
    "timezone": "A",
    "type": "America/Chicago",
    "region": "airport"
  },
  {
    "name": "Sitka Rocky Gutierrez Airport",
    "city": "Sitka",
    "country": "United States",
    "iata_code": "SIT",
    "icao_code": "PASI",
    "latitude": 57.04710006713867,
    "longitude": -135.36199951171875,
    "altitude": 21,
    "timezone_offset": -9.0,
    "timezone": "A",
    "type": "America/Anchorage",
    "region": "airport"
  },
  {
    "name": "Long Island Mac Arthur Airport",
    "city": "Islip",
    "country": "United States",
    "iata_code": "ISP",
    "icao_code": "KISP",
    "latitude": 40.79520035,
    "longitude": -73.10019684,
    "altitude": 99,
    "timezone_offset": -5.0,
    "timezone": "A",
    "type": "America/New_York",
    "region": "airport"
  },
  {
    "name": "Minneapolis-St Paul International/Wold-Chamberlain Airport",
    "city": "Minneapolis",
    "country": "United States",
    "iata_code": "MSP",
    "icao_code": "KMSP",
    "latitude": 44.882,
    "longitude": -93.221802,
    "altitude": 841,
    "timezone_offset": -6.0,
    "timezone": "A",
    "type": "America/Chicago",
    "region": "airport"
  },
  {
    "name": "Louis Armstrong New Orleans International Airport",
    "city": "New Orleans",
    "country": "United States",
    "iata_code": "MSY",
    "icao_code": "KMSY",
    "latitude": 29.99340057373047,
    "longitude": -90.25800323486328,
    "altitude": 4,
    "timezone_offset": -6.0,
    "timezone": "A",
    "type": "America/Chicago",
    "region": "airport"
  },
  {
    "name": "Portland International Jetport Airport",
    "city": "Portland",
    "country": "United States",
    "iata_code": "PWM",
    "icao_code": "KPWM",
    "latitude": 43.64619827,
    "longitude": -70.30930328,
    "altitude": 76,
    "timezone_offset": -5.0,
    "timezone": "A",
    "type": "America/New_York",
    "region": "airport"
  },
  {
    "name": "Will Rogers World Airport",
    "city": "Oklahoma City",
    "country": "United States",
    "iata_code": "OKC",
    "icao_code": "KOKC",
    "latitude": 35.39310073852539,
    "longitude": -97.60070037841797,
    "altitude": 1295,
    "timezone_offset": -6.0,
    "timezone": "A",
    "type": "America/Chicago",
    "region": "airport"
  },
  {
    "name": "Albany International Airport",
    "city": "Albany",
    "country": "United States",
    "iata_code": "ALB",
    "icao_code": "KALB",
    "latitude": 42.74829864501953,
    "longitude": -73.80169677734375,
    "altitude": 285,
    "timezone_offset": -5.0,
    "timezone": "A",
    "type": "America/New_York",
    "region": "airport"
  },
  {
    "name": "John Wayne Airport-Orange County Airport",
    "city": "Santa Ana",
    "country": "United States",
    "iata_code": "SNA",
    "icao_code": "KSNA",
    "latitude": 33.67570114,
    "longitude": -117.8679962,
    "altitude": 56,
    "timezone_offset": -8.0,
    "timezone": "A",
    "type": "America/Los_Angeles",
    "region": "airport"
  },
  {
    "name": "Charlotte Douglas International Airport",
    "city": "Charlotte",
    "country": "United States",
    "iata_code": "CLT",
    "icao_code": "KCLT",
    "latitude": 35.2140007019043,
    "longitude": -80.94309997558594,
    "altitude": 748,
    "timezone_offset": -5.0,
    "timezone": "A",
    "type": "America/New_York",
    "region": "airport"
  },
  {
    "name": "McCarran International Airport",
    "city": "Las Vegas",
    "country": "United States",
    "iata_code": "LAS",
    "icao_code": "KLAS",
    "latitude": 36.08010101,
    "longitude": -115.1520004,
    "altitude": 2181,
    "timezone_offset": -8.0,
    "timezone": "A",
    "type": "America/Los_Angeles",
    "region": "airport"
  },
  {
    "name": "Orlando International Airport",
    "city": "Orlando",
    "country": "United States",
    "iata_code": "MCO",
    "icao_code": "KMCO",
    "latitude": 28.429399490356445,
    "longitude": -81.30899810791016,
    "altitude": 96,
    "timezone_offset": -5.0,
    "timezone": "A",
    "type": "America/New_York",
    "region": "airport"
  },
  {
    "name": "Suvarnabhumi Airport",
    "city": "Bangkok",
    "country": "Thailand",
    "iata_code": "BKK",
    "icao_code": "VTBS",
    "latitude": 13.681099891662598,
    "longitude": 100.74700164794922,
    "altitude": 5,
    "timezone_offset": 7.0,
    "timezone": "U",
    "type": "Asia/Bangkok",
    "region": "airport"
  },
  {
    "name": "Incheon International Airport",
    "city": "Seoul",
    "country": "South Korea",
    "iata_code": "ICN",
    "icao_code": "RKSI",
    "latitude": 37.46910095214844,
    "longitude": 126.45099639892578,
    "altitude": 23,
    "timezone_offset": 9.0,
    "timezone": "U",
    "type": "Asia/Seoul",
    "region": "airport"
  },
  {
    "name": "Chiang Mai International Airport",
    "city": "Chiang Mai",
    "country": "Thailand",
    "iata_code": "CNX",
    "icao_code": "VTCC",
    "latitude": 18.766799926799997,
    "longitude": 98.962600708,
    "altitude": 1036,
    "timezone_offset": 7.0,
    "timezone": "U",
    "type": "Asia/Bangkok",
    "region": "airport"
  },
  {
    "name": "Ngurah Rai (Bali) International Airport",
    "city": "Denpasar",
    "country": "Indonesia",
    "iata_code": "DPS",
    "icao_code": "WADD",
    "latitude": -8.7481698989868,
    "longitude": 115.16699981689,
    "altitude": 14,
    "timezone_offset": 8.0,
    "timezone": "N",
    "type": "Asia/Makassar",
    "region": "airport"
  },
  {
    "name": "Eleftherios Venizelos International Airport",
    "city": "Athens",
    "country": "Greece",
    "iata_code": "ATH",
    "icao_code": "LGAV",
    "latitude": 37.9364013672,
    "longitude": 23.9444999695,
    "altitude": 308,
    "timezone_offset": 2.0,
    "timezone": "E",
    "type": "Europe/Athens",
    "region": "airport"
  },
  {
    "name": "Chubu Centrair International Airport",
    "city": "Nagoya",
    "country": "Japan",
    "iata_code": "NGO",
    "icao_code": "RJGG",
    "latitude": 34.8583984375,
    "longitude": 136.80499267578125,
    "altitude": 15,
    "timezone_offset": 9.0,
    "timezone": "U",
    "type": "Asia/Tokyo",
    "region": "airport"
  },
  {
    "name": "Santa Barbara Municipal Airport",
    "city": "Santa Barbara",
    "country": "United States",
    "iata_code": "SBA",
    "icao_code": "KSBA",
    "latitude": 34.42620087,
    "longitude": -119.8399963,
    "altitude": 13,
    "timezone_offset": -8.0,
    "timezone": "A",
    "type": "America/Los_Angeles",
    "region": "airport"
  },
  {
    "name": "Riga International Airport",
    "city": "Riga",
    "country": "Latvia",
    "iata_code": "RIX",
    "icao_code": "EVRA",
    "latitude": 56.92359924316406,
    "longitude": 23.971099853515625,
    "altitude": 36,
    "timezone_offset": 2.0,
    "timezone": "E",
    "type": "Europe/Riga",
    "region": "airport"
  },
  {
    "name": "Zvartnots International Airport",
    "city": "Yerevan",
    "country": "Armenia",
    "iata_code": "EVN",
    "icao_code": "UDYZ",
    "latitude": 40.1473007202,
    "longitude": 44.3959007263,
    "altitude": 2838,
    "timezone_offset": 4.0,
    "timezone": "E",
    "type": "Asia/Yerevan",
    "region": "airport"
  },
  {
    "name": "Tbilisi International Airport",
    "city": "Tbilisi",
    "country": "Georgia",
    "iata_code": "TBS",
    "icao_code": "UGTB",
    "latitude": 41.6692008972,
    "longitude": 44.95470047,
    "altitude": 1624,
    "timezone_offset": 4.0,
    "timezone": "N",
    "type": "Asia/Tbilisi",
    "region": "airport"
  },
  {
    "name": "Ministro Pistarini International Airport",
    "city": "Buenos Aires",
    "country": "Argentina",
    "iata_code": "EZE",
    "icao_code": "SAEZ",
    "latitude": -34.8222,
    "longitude": -58.5358,
    "altitude": 67,
    "timezone_offset": -3.0,
    "timezone": "N",
    "type": "America/Buenos_Aires",
    "region": "airport"
  },
  {
    "name": "Kansai International Airport",
    "city": "Osaka",
    "country": "Japan",
    "iata_code": "KIX",
    "icao_code": "RJBB",
    "latitude": 34.42729949951172,
    "longitude": 135.24400329589844,
    "altitude": 26,
    "timezone_offset": 9.0,
    "timezone": "U",
    "type": "Asia/Tokyo",
    "region": "airport"
  },
  {
    "name": "Palma De Mallorca Airport",
    "city": "Palma de Mallorca",
    "country": "Spain",
    "iata_code": "PMI",
    "icao_code": "LEPA",
    "latitude": 39.551700592,
    "longitude": 2.73881006241,
    "altitude": 27,
    "timezone_offset": 1.0,
    "timezone": "E",
    "type": "Europe/Madrid",
    "region": "airport"
  },
  {
    "name": "Asheville Regional Airport",
    "city": "Asheville",
    "country": "United States",
    "iata_code": "AVL",
    "icao_code": "KAVL",
    "latitude": 35.43619918823242,
    "longitude": -82.54180145263672,
    "altitude": 2165,
    "timezone_offset": -5.0,
    "timezone": "A",
    "type": "America/New_York",
    "region": "airport"
  },
  {
    "name": "Piedmont Triad International Airport",
    "city": "Greensboro",
    "country": "United States",
    "iata_code": "GSO",
    "icao_code": "KGSO",
    "latitude": 36.097801208496094,
    "longitude": -79.93730163574219,
    "altitude": 925,
    "timezone_offset": -5.0,
    "timezone": "A",
    "type": "America/New_York",
    "region": "airport"
  },
  {
    "name": "Manchester-Boston Regional Airport",
    "city": "Manchester NH",
    "country": "United States",
    "iata_code": "MHT",
    "icao_code": "KMHT",
    "latitude": 42.932598,
    "longitude": -71.435699,
    "altitude": 266,
    "timezone_offset": -5.0,
    "timezone": "A",
    "type": "America/New_York",
    "region": "airport"
  },
  {
    "name": "Evansville Regional Airport",
    "city": "Evansville",
    "country": "United States",
    "iata_code": "EVV",
    "icao_code": "KEVV",
    "latitude": 38.0369987488,
    "longitude": -87.5324020386,
    "altitude": 418,
    "timezone_offset": -6.0,
    "timezone": "A",
    "type": "America/Chicago",
    "region": "airport"
  },
  {
    "name": "Albuquerque International Sunport",
    "city": "Albuquerque",
    "country": "United States",
    "iata_code": "ABQ",
    "icao_code": "KABQ",
    "latitude": 35.040199,
    "longitude": -106.609001,
    "altitude": 5355,
    "timezone_offset": -7.0,
    "timezone": "A",
    "type": "America/Denver",
    "region": "airport"
  },
  {
    "name": "Gallatin Field",
    "city": "Bozeman",
    "country": "United States",
    "iata_code": "BZN",
    "icao_code": "KBZN",
    "latitude": 45.77750015,
    "longitude": -111.1529999,
    "altitude": 4473,
    "timezone_offset": -7.0,
    "timezone": "A",
    "type": "America/Denver",
    "region": "airport"
  },
  {
    "name": "Billings Logan International Airport",
    "city": "Billings",
    "country": "United States",
    "iata_code": "BIL",
    "icao_code": "KBIL",
    "latitude": 45.807701110839844,
    "longitude": -108.54299926757812,
    "altitude": 3652,
    "timezone_offset": -7.0,
    "timezone": "A",
    "type": "America/Denver",
    "region": "airport"
  },
  {
    "name": "Jackson Hole Airport",
    "city": "Jacksn Hole",
    "country": "United States",
    "iata_code": "JAC",
    "icao_code": "KJAC",
    "latitude": 43.6072998046875,
    "longitude": -110.73799896240234,
    "altitude": 6451,
    "timezone_offset": -7.0,
    "timezone": "A",
    "type": "America/Denver",
    "region": "airport"
  },
  {
    "name": "Greenville Spartanburg International Airport",
    "city": "Greenville",
    "country": "United States",
    "iata_code": "GSP",
    "icao_code": "KGSP",
    "latitude": 34.8956985474,
    "longitude": -82.2189025879,
    "altitude": 964,
    "timezone_offset": -5.0,
    "timezone": "A",
    "type": "America/New_York",
    "region": "airport"
  },
  {
    "name": "Gulfport Biloxi International Airport",
    "city": "Gulfport",
    "country": "United States",
    "iata_code": "GPT",
    "icao_code": "KGPT",
    "latitude": 30.40730094909668,
    "longitude": -89.07009887695312,
    "altitude": 28,
    "timezone_offset": -6.0,
    "timezone": "A",
    "type": "America/Chicago",
    "region": "airport"
  },
  {
    "name": "Jomo Kenyatta International Airport",
    "city": "Nairobi",
    "country": "Kenya",
    "iata_code": "NBO",
    "icao_code": "HKJK",
    "latitude": -1.31923997402,
    "longitude": 36.9277992249,
    "altitude": 5330,
    "timezone_offset": 3.0,
    "timezone": "N",
    "type": "Africa/Nairobi",
    "region": "airport"
  },
  {
    "name": "Sarasota Bradenton International Airport",
    "city": "Sarasota",
    "country": "United States",
    "iata_code": "SRQ",
    "icao_code": "KSRQ",
    "latitude": 27.39539909362793,
    "longitude": -82.55439758300781,
    "altitude": 30,
    "timezone_offset": -5.0,
    "timezone": "A",
    "type": "America/New_York",
    "region": "airport"
  },
  {
    "name": "Mahlon Sweet Field",
    "city": "Eugene",
    "country": "United States",
    "iata_code": "EUG",
    "icao_code": "KEUG",
    "latitude": 44.12459945678711,
    "longitude": -123.21199798583984,
    "altitude": 374,
    "timezone_offset": -8.0,
    "timezone": "A",
    "type": "America/Los_Angeles",
    "region": "airport"
  },
  {
    "name": "Idaho Falls Regional Airport",
    "city": "Idaho Falls",
    "country": "United States",
    "iata_code": "IDA",
    "icao_code": "KIDA",
    "latitude": 43.514599,
    "longitude": -112.070999,
    "altitude": 4744,
    "timezone_offset": -7.0,
    "timezone": "A",
    "type": "America/Denver",
    "region": "airport"
  },
  {
    "name": "Rogue Valley International Medford Airport",
    "city": "Medford",
    "country": "United States",
    "iata_code": "MFR",
    "icao_code": "KMFR",
    "latitude": 42.37419891357422,
    "longitude": -122.87300109863281,
    "altitude": 1335,
    "timezone_offset": -8.0,
    "timezone": "A",
    "type": "America/Los_Angeles",
    "region": "airport"
  },
  {
    "name": "Roberts Field",
    "city": "Redmond-Bend",
    "country": "United States",
    "iata_code": "RDM",
    "icao_code": "KRDM",
    "latitude": 44.2541008,
    "longitude": -121.1500015,
    "altitude": 3080,
    "timezone_offset": -8.0,
    "timezone": "A",
    "type": "America/Los_Angeles",
    "region": "airport"
  },
  {
    "name": "Akron Canton Regional Airport",
    "city": "Akron",
    "country": "United States",
    "iata_code": "CAK",
    "icao_code": "KCAK",
    "latitude": 40.916099548339844,
    "longitude": -81.44219970703125,
    "altitude": 1228,
    "timezone_offset": -5.0,
    "timezone": "A",
    "type": "America/New_York",
    "region": "airport"
  },
  {
    "name": "Tri-Cities Regional TN/VA Airport",
    "city": "BRISTOL",
    "country": "United States",
    "iata_code": "TRI",
    "icao_code": "KTRI",
    "latitude": 36.475201,
    "longitude": -82.407401,
    "altitude": 1519,
    "timezone_offset": -5.0,
    "timezone": "A",
    "type": "America/New_York",
    "region": "airport"
  },
  {
    "name": "Baghdad International Airport",
    "city": "Baghdad",
    "country": "Iraq",
    "iata_code": "BGW",
    "icao_code": "ORBI",
    "latitude": 33.262500762900004,
    "longitude": 44.2346000671,
    "altitude": 114,
    "timezone_offset": 3.0,
    "timezone": "U",
    "type": "Asia/Baghdad",
    "region": "airport"
  },
  {
    "name": "Petersburg James A Johnson Airport",
    "city": "Petersburg",
    "country": "United States",
    "iata_code": "PSG",
    "icao_code": "PAPG",
    "latitude": 56.80170059,
    "longitude": -132.9450073,
    "altitude": 111,
    "timezone_offset": -9.0,
    "timezone": "A",
    "type": "America/Anchorage",
    "region": "airport"
  },
  {
    "name": "Milas Bodrum International Airport",
    "city": "Bodrum",
    "country": "Turkey",
    "iata_code": "BJV",
    "icao_code": "LTFE",
    "latitude": 37.25059890749999,
    "longitude": 27.6643009186,
    "altitude": 21,
    "timezone_offset": 3.0,
    "timezone": "E",
    "type": "Europe/Istanbul",
    "region": "airport"
  },
  {
    "name": "Sabiha Gökçen International Airport",
    "city": "Istanbul",
    "country": "Turkey",
    "iata_code": "SAW",
    "icao_code": "LTFJ",
    "latitude": 40.898601532,
    "longitude": 29.3092002869,
    "altitude": 312,
    "timezone_offset": 3.0,
    "timezone": "E",
    "type": "Europe/Istanbul",
    "region": "airport"
  },
  {
    "name": "Imam Khomeini International Airport",
    "city": "Tehran",
    "country": "Iran",
    "iata_code": "IKA",
    "icao_code": "OIIE",
    "latitude": 35.416099548339844,
    "longitude": 51.152198791503906,
    "altitude": 3305,
    "timezone_offset": 3.5,
    "timezone": "E",
    "type": "Asia/Tehran",
    "region": "airport"
  },
  {
    "name": "Northwest Arkansas Regional Airport",
    "city": "Bentonville",
    "country": "United States",
    "iata_code": "XNA",
    "icao_code": "KXNA",
    "latitude": 36.281898,
    "longitude": -94.306801,
    "altitude": 1287,
    "timezone_offset": -6.0,
    "timezone": "A",
    "type": "America/Chicago",
    "region": "airport"
  },
  {
    "name": "South Bend Regional Airport",
    "city": "South Bend",
    "country": "United States",
    "iata_code": "SBN",
    "icao_code": "KSBN",
    "latitude": 41.70869827270508,
    "longitude": -86.31729888916016,
    "altitude": 799,
    "timezone_offset": -5.0,
    "timezone": "A",
    "type": "America/New_York",
    "region": "airport"
  },
  {
    "name": "Wrangell Airport",
    "city": "Wrangell",
    "country": "United States",
    "iata_code": "WRG",
    "icao_code": "PAWG",
    "latitude": 56.48429871,
    "longitude": -132.3699951,
    "altitude": 49,
    "timezone_offset": -9.0,
    "timezone": "A",
    "type": "America/Anchorage",
    "region": "airport"
  },
  {
    "name": "Worcester Regional Airport",
    "city": "Worcester",
    "country": "United States",
    "iata_code": "ORH",
    "icao_code": "KORH",
    "latitude": 42.26729965209961,
    "longitude": -71.87570190429688,
    "altitude": 1009,
    "timezone_offset": -5.0,
    "timezone": "A",
    "type": "America/New_York",
    "region": "airport"
  },
  {
    "name": "Hamad International Airport",
    "city": "Doha",
    "country": "Qatar",
    "iata_code": "DOH",
    "icao_code": "OTHH",
    "latitude": 25.273056,
    "longitude": 51.608056,
    "altitude": 13,
    "timezone_offset": 3.0,
    "timezone": "N",
    "type": "",
    "region": "airport"
  },
  {
    "name": "Rajiv Gandhi International Airport",
    "city": "Hyderabad",
    "country": "India",
    "iata_code": "HYD",
    "icao_code": "VOHS",
    "latitude": 17.2313175201,
    "longitude": 78.4298553467,
    "altitude": 2024,
    "timezone_offset": 5.5,
    "timezone": "N",
    "type": "",
    "region": "airport"
  },
  {
    "name": "Istanbul Airport",
    "city": "Istanbul",
    "country": "Turkey",
    "iata_code": "IST",
    "icao_code": "LTFM",
    "latitude": 41.275278,
    "longitude": 28.751944,
    "altitude": 325,
    "timezone_offset": 3.0,
    "timezone": "E",
    "type": "",
    "region": "airport"
  },
  {
    "name": "New Islamabad International Airport",
    "city": "Islamabad",
    "country": "Pakistan",
    "iata_code": "ISB",
    "icao_code": "OPIS",
    "latitude": 33.560713,
    "longitude": 72.851613,
    "altitude": 1646,
    "timezone_offset": 5.0,
    "timezone": "U",
    "type": "",
    "region": "airport"
  }
]